[{"zipcode":"10001","state_abbr":"NY","latitude":"40.750742","longitude":"-73.99653","city":"New York","state":"New York"},{"zipcode":"10002","state_abbr":"NY","latitude":"40.717040","longitude":"-73.98700","city":"New York","state":"New York"},{"zipcode":"10003","state_abbr":"NY","latitude":"40.732509","longitude":"-73.98935","city":"New York","state":"New York"},{"zipcode":"10004","state_abbr":"NJ","latitude":"40.699226","longitude":"-74.04118","city":"New York","state":"New Jersey"},{"zipcode":"10005","state_abbr":"NY","latitude":"40.706019","longitude":"-74.00858","city":"New York","state":"New York"},{"zipcode":"10006","state_abbr":"NY","latitude":"40.707904","longitude":"-74.01342","city":"New York","state":"New York"},{"zipcode":"10007","state_abbr":"NY","latitude":"40.714754","longitude":"-74.00721","city":"New York","state":"New York"},{"zipcode":"10009","state_abbr":"NY","latitude":"40.727093","longitude":"-73.97864","city":"New York","state":"New York"},{"zipcode":"10010","state_abbr":"NY","latitude":"40.739022","longitude":"-73.98205","city":"New York","state":"New York"},{"zipcode":"10011","state_abbr":"NY","latitude":"40.741012","longitude":"-74.00012","city":"New York","state":"New York"},{"zipcode":"10012","state_abbr":"NY","latitude":"40.725960","longitude":"-73.99834","city":"New York","state":"New York"},{"zipcode":"10013","state_abbr":"NY","latitude":"40.720666","longitude":"-74.00526","city":"New York","state":"New York"},{"zipcode":"10014","state_abbr":"NY","latitude":"40.734718","longitude":"-74.00532","city":"New York","state":"New York"},{"zipcode":"10016","state_abbr":"NY","latitude":"40.746180","longitude":"-73.97759","city":"New York","state":"New York"},{"zipcode":"10017","state_abbr":"NY","latitude":"40.752159","longitude":"-73.97231","city":"New York","state":"New York"},{"zipcode":"10018","state_abbr":"NY","latitude":"40.755101","longitude":"-73.99337","city":"New York","state":"New York"},{"zipcode":"10019","state_abbr":"NY","latitude":"40.765714","longitude":"-73.98560","city":"New York","state":"New York"},{"zipcode":"10020","state_abbr":"NY","latitude":"40.758667","longitude":"-73.98024","city":"New York","state":"New York"},{"zipcode":"10021","state_abbr":"NY","latitude":"40.768420","longitude":"-73.96045","city":"New York","state":"New York"},{"zipcode":"10022","state_abbr":"NY","latitude":"40.759015","longitude":"-73.96732","city":"New York","state":"New York"},{"zipcode":"10023","state_abbr":"NY","latitude":"40.776099","longitude":"-73.98285","city":"New York","state":"New York"},{"zipcode":"10024","state_abbr":"NY","latitude":"40.786387","longitude":"-73.97709","city":"New York","state":"New York"},{"zipcode":"10025","state_abbr":"NY","latitude":"40.798502","longitude":"-73.96811","city":"New York","state":"New York"},{"zipcode":"10026","state_abbr":"NY","latitude":"40.802853","longitude":"-73.95471","city":"New York","state":"New York"},{"zipcode":"10027","state_abbr":"NY","latitude":"40.812665","longitude":"-73.95499","city":"New York","state":"New York"},{"zipcode":"10028","state_abbr":"NY","latitude":"40.776777","longitude":"-73.95410","city":"New York","state":"New York"},{"zipcode":"10029","state_abbr":"NY","latitude":"40.791586","longitude":"-73.94575","city":"New York","state":"New York"},{"zipcode":"10030","state_abbr":"NY","latitude":"40.818151","longitude":"-73.94351","city":"New York","state":"New York"},{"zipcode":"10031","state_abbr":"NY","latitude":"40.826201","longitude":"-73.94879","city":"New York","state":"New York"},{"zipcode":"10032","state_abbr":"NY","latitude":"40.840686","longitude":"-73.94154","city":"New York","state":"New York"},{"zipcode":"10033","state_abbr":"NY","latitude":"40.848764","longitude":"-73.93496","city":"New York","state":"New York"},{"zipcode":"10034","state_abbr":"NY","latitude":"40.867653","longitude":"-73.92000","city":"New York","state":"New York"},{"zipcode":"10035","state_abbr":"NY","latitude":"40.802395","longitude":"-73.93359","city":"New York","state":"New York"},{"zipcode":"10036","state_abbr":"NY","latitude":"40.759511","longitude":"-73.99019","city":"New York","state":"New York"},{"zipcode":"10037","state_abbr":"NY","latitude":"40.813385","longitude":"-73.93616","city":"New York","state":"New York"},{"zipcode":"10038","state_abbr":"NY","latitude":"40.709677","longitude":"-74.00365","city":"New York","state":"New York"},{"zipcode":"10039","state_abbr":"NY","latitude":"40.826181","longitude":"-73.93710","city":"New York","state":"New York"},{"zipcode":"10040","state_abbr":"NY","latitude":"40.858704","longitude":"-73.92853","city":"New York","state":"New York"},{"zipcode":"10041","state_abbr":"NY","latitude":"40.703042","longitude":"-74.01009","city":"New York","state":"New York"},{"zipcode":"10044","state_abbr":"NY","latitude":"40.762174","longitude":"-73.94917","city":"New York","state":"New York"},{"zipcode":"10048","state_abbr":"NY","latitude":"40.712086","longitude":"-74.01227","city":"New York","state":"New York"},{"zipcode":"10069","state_abbr":"NY","latitude":"40.775477","longitude":"-73.99050","city":"New York","state":"New York"},{"zipcode":"10103","state_abbr":"NY","latitude":"40.760915","longitude":"-73.97785","city":"New York","state":"New York"},{"zipcode":"10111","state_abbr":"NY","latitude":"40.759235","longitude":"-73.97775","city":"New York","state":"New York"},{"zipcode":"10112","state_abbr":"NY","latitude":"40.759291","longitude":"-73.97979","city":"New York","state":"New York"},{"zipcode":"10115","state_abbr":"NY","latitude":"40.810906","longitude":"-73.96375","city":"New York","state":"New York"},{"zipcode":"10119","state_abbr":"NY","latitude":"40.750824","longitude":"-73.99289","city":"New York","state":"New York"},{"zipcode":"10128","state_abbr":"NY","latitude":"40.781894","longitude":"-73.95039","city":"New York","state":"New York"},{"zipcode":"10152","state_abbr":"NY","latitude":"40.758611","longitude":"-73.97223","city":"New York","state":"New York"},{"zipcode":"10153","state_abbr":"NY","latitude":"40.763742","longitude":"-73.97268","city":"New York","state":"New York"},{"zipcode":"10154","state_abbr":"NY","latitude":"40.757986","longitude":"-73.97267","city":"New York","state":"New York"},{"zipcode":"10162","state_abbr":"NY","latitude":"40.769334","longitude":"-73.94893","city":"New York","state":"New York"},{"zipcode":"10165","state_abbr":"NY","latitude":"40.752354","longitude":"-73.97890","city":"New York","state":"New York"},{"zipcode":"10167","state_abbr":"NY","latitude":"40.754862","longitude":"-73.97495","city":"New York","state":"New York"},{"zipcode":"10169","state_abbr":"NY","latitude":"40.754463","longitude":"-73.97606","city":"New York","state":"New York"},{"zipcode":"10170","state_abbr":"NY","latitude":"40.752859","longitude":"-73.97608","city":"New York","state":"New York"},{"zipcode":"10171","state_abbr":"NY","latitude":"40.756099","longitude":"-73.97401","city":"New York","state":"New York"},{"zipcode":"10172","state_abbr":"NY","latitude":"40.755494","longitude":"-73.97447","city":"New York","state":"New York"},{"zipcode":"10173","state_abbr":"NY","latitude":"40.754302","longitude":"-73.97955","city":"New York","state":"New York"},{"zipcode":"10177","state_abbr":"NY","latitude":"40.755345","longitude":"-73.97609","city":"New York","state":"New York"},{"zipcode":"10271","state_abbr":"NY","latitude":"40.708669","longitude":"-74.01043","city":"New York","state":"New York"},{"zipcode":"10278","state_abbr":"NY","latitude":"40.715721","longitude":"-74.00395","city":"New York","state":"New York"},{"zipcode":"10279","state_abbr":"NY","latitude":"40.713062","longitude":"-74.00857","city":"New York","state":"New York"},{"zipcode":"10280","state_abbr":"NY","latitude":"40.707467","longitude":"-74.01780","city":"New York","state":"New York"},{"zipcode":"10282","state_abbr":"NY","latitude":"40.717179","longitude":"-74.01433","city":"New York","state":"New York"},{"zipcode":"10301","state_abbr":"NY","latitude":"40.631775","longitude":"-74.09432","city":"Staten Island","state":"New York"},{"zipcode":"10302","state_abbr":"NY","latitude":"40.631127","longitude":"-74.13715","city":"Staten Island","state":"New York"},{"zipcode":"10303","state_abbr":"NY","latitude":"40.629448","longitude":"-74.16239","city":"Staten Island","state":"New York"},{"zipcode":"10304","state_abbr":"NY","latitude":"40.607870","longitude":"-74.08991","city":"Staten Island","state":"New York"},{"zipcode":"10305","state_abbr":"NY","latitude":"40.599021","longitude":"-74.07503","city":"Staten Island","state":"New York"},{"zipcode":"10306","state_abbr":"NY","latitude":"40.569394","longitude":"-74.11785","city":"Staten Island","state":"New York"},{"zipcode":"10307","state_abbr":"NY","latitude":"40.508274","longitude":"-74.24387","city":"Staten Island","state":"New York"},{"zipcode":"10308","state_abbr":"NY","latitude":"40.551353","longitude":"-74.15098","city":"Staten Island","state":"New York"},{"zipcode":"10309","state_abbr":"NY","latitude":"40.529749","longitude":"-74.21304","city":"Staten Island","state":"New York"},{"zipcode":"10310","state_abbr":"NY","latitude":"40.632120","longitude":"-74.11551","city":"Staten Island","state":"New York"},{"zipcode":"10312","state_abbr":"NY","latitude":"40.543117","longitude":"-74.17628","city":"Staten Island","state":"New York"},{"zipcode":"10314","state_abbr":"NY","latitude":"40.606337","longitude":"-74.14513","city":"Staten Island","state":"New York"},{"zipcode":"10451","state_abbr":"NY","latitude":"40.819729","longitude":"-73.92230","city":"Bronx","state":"New York"},{"zipcode":"10452","state_abbr":"NY","latitude":"40.838745","longitude":"-73.92234","city":"Bronx","state":"New York"},{"zipcode":"10453","state_abbr":"NY","latitude":"40.853017","longitude":"-73.91214","city":"Bronx","state":"New York"},{"zipcode":"10454","state_abbr":"NY","latitude":"40.805968","longitude":"-73.91628","city":"Bronx","state":"New York"},{"zipcode":"10455","state_abbr":"NY","latitude":"40.815559","longitude":"-73.90771","city":"Bronx","state":"New York"},{"zipcode":"10456","state_abbr":"NY","latitude":"40.829676","longitude":"-73.90856","city":"Bronx","state":"New York"},{"zipcode":"10457","state_abbr":"NY","latitude":"40.846745","longitude":"-73.89861","city":"Bronx","state":"New York"},{"zipcode":"10458","state_abbr":"NY","latitude":"40.864166","longitude":"-73.88881","city":"Bronx","state":"New York"},{"zipcode":"10459","state_abbr":"NY","latitude":"40.825432","longitude":"-73.89327","city":"Bronx","state":"New York"},{"zipcode":"10460","state_abbr":"NY","latitude":"40.840950","longitude":"-73.88036","city":"Bronx","state":"New York"},{"zipcode":"10461","state_abbr":"NY","latitude":"40.842917","longitude":"-73.83819","city":"Bronx","state":"New York"},{"zipcode":"10462","state_abbr":"NY","latitude":"40.842173","longitude":"-73.85862","city":"Bronx","state":"New York"},{"zipcode":"10463","state_abbr":"NY","latitude":"40.881086","longitude":"-73.90749","city":"Bronx","state":"New York"},{"zipcode":"10464","state_abbr":"NY","latitude":"40.857017","longitude":"-73.78903","city":"Bronx","state":"New York"},{"zipcode":"10465","state_abbr":"NY","latitude":"40.825727","longitude":"-73.81752","city":"Bronx","state":"New York"},{"zipcode":"10466","state_abbr":"NY","latitude":"40.890950","longitude":"-73.84702","city":"Bronx","state":"New York"},{"zipcode":"10467","state_abbr":"NY","latitude":"40.872265","longitude":"-73.86937","city":"Bronx","state":"New York"},{"zipcode":"10468","state_abbr":"NY","latitude":"40.867107","longitude":"-73.89916","city":"Bronx","state":"New York"},{"zipcode":"10469","state_abbr":"NY","latitude":"40.868643","longitude":"-73.84735","city":"Bronx","state":"New York"},{"zipcode":"10470","state_abbr":"NY","latitude":"40.900629","longitude":"-73.86072","city":"Bronx","state":"New York"},{"zipcode":"10471","state_abbr":"NY","latitude":"40.900819","longitude":"-73.90347","city":"Bronx","state":"New York"},{"zipcode":"10472","state_abbr":"NY","latitude":"40.830409","longitude":"-73.86845","city":"Bronx","state":"New York"},{"zipcode":"10473","state_abbr":"NY","latitude":"40.818514","longitude":"-73.85893","city":"Bronx","state":"New York"},{"zipcode":"10474","state_abbr":"NY","latitude":"40.813210","longitude":"-73.88755","city":"Bronx","state":"New York"},{"zipcode":"10475","state_abbr":"NY","latitude":"40.878522","longitude":"-73.82541","city":"Bronx","state":"New York"},{"zipcode":"10501","state_abbr":"NY","latitude":"41.289939","longitude":"-73.76493","city":"Amawalk","state":"New York"},{"zipcode":"10502","state_abbr":"NY","latitude":"41.011324","longitude":"-73.84152","city":"Ardsley","state":"New York"},{"zipcode":"10503","state_abbr":"NY","latitude":"41.024855","longitude":"-73.87513","city":"Ardsley On Hudson","state":"New York"},{"zipcode":"10504","state_abbr":"NY","latitude":"41.129908","longitude":"-73.70352","city":"Armonk","state":"New York"},{"zipcode":"10506","state_abbr":"NY","latitude":"41.195778","longitude":"-73.62777","city":"Bedford","state":"New York"},{"zipcode":"10507","state_abbr":"NY","latitude":"41.236931","longitude":"-73.69018","city":"Bedford Hills","state":"New York"},{"zipcode":"10509","state_abbr":"NY","latitude":"41.413620","longitude":"-73.59556","city":"Brewster","state":"New York"},{"zipcode":"10510","state_abbr":"NY","latitude":"41.146297","longitude":"-73.83311","city":"Briarcliff Manor","state":"New York"},{"zipcode":"10511","state_abbr":"NY","latitude":"41.260283","longitude":"-73.94033","city":"Buchanan","state":"New York"},{"zipcode":"10512","state_abbr":"NY","latitude":"41.444833","longitude":"-73.68450","city":"Carmel","state":"New York"},{"zipcode":"10514","state_abbr":"NY","latitude":"41.167455","longitude":"-73.77597","city":"Chappaqua","state":"New York"},{"zipcode":"10516","state_abbr":"NY","latitude":"41.440695","longitude":"-73.93140","city":"Cold Spring","state":"New York"},{"zipcode":"10518","state_abbr":"NY","latitude":"41.269072","longitude":"-73.60493","city":"Cross River","state":"New York"},{"zipcode":"10519","state_abbr":"NY","latitude":"41.345980","longitude":"-73.66199","city":"Croton Falls","state":"New York"},{"zipcode":"10520","state_abbr":"NY","latitude":"41.215541","longitude":"-73.88543","city":"Croton On Hudson","state":"New York"},{"zipcode":"10522","state_abbr":"NY","latitude":"41.012729","longitude":"-73.86602","city":"Dobbs Ferry","state":"New York"},{"zipcode":"10523","state_abbr":"NY","latitude":"41.057089","longitude":"-73.81658","city":"Elmsford","state":"New York"},{"zipcode":"10524","state_abbr":"NY","latitude":"41.363063","longitude":"-73.92154","city":"Garrison","state":"New York"},{"zipcode":"10526","state_abbr":"NY","latitude":"41.294561","longitude":"-73.66701","city":"Goldens Bridge","state":"New York"},{"zipcode":"10527","state_abbr":"NY","latitude":"41.319026","longitude":"-73.75760","city":"Granite Springs","state":"New York"},{"zipcode":"10528","state_abbr":"NY","latitude":"40.972667","longitude":"-73.71886","city":"Harrison","state":"New York"},{"zipcode":"10530","state_abbr":"NY","latitude":"41.025114","longitude":"-73.80635","city":"Hartsdale","state":"New York"},{"zipcode":"10532","state_abbr":"NY","latitude":"41.103664","longitude":"-73.79580","city":"Hawthorne","state":"New York"},{"zipcode":"10533","state_abbr":"NY","latitude":"41.039005","longitude":"-73.86350","city":"Irvington","state":"New York"},{"zipcode":"10535","state_abbr":"NY","latitude":"41.331173","longitude":"-73.80208","city":"Jefferson Valley","state":"New York"},{"zipcode":"10536","state_abbr":"NY","latitude":"41.265478","longitude":"-73.68512","city":"Katonah","state":"New York"},{"zipcode":"10537","state_abbr":"NY","latitude":"41.337335","longitude":"-73.88689","city":"Lake Peekskill","state":"New York"},{"zipcode":"10538","state_abbr":"NY","latitude":"40.933089","longitude":"-73.75615","city":"Larchmont","state":"New York"},{"zipcode":"10541","state_abbr":"NY","latitude":"41.372419","longitude":"-73.75367","city":"Mahopac","state":"New York"},{"zipcode":"10543","state_abbr":"NY","latitude":"40.952892","longitude":"-73.73460","city":"Mamaroneck","state":"New York"},{"zipcode":"10546","state_abbr":"NY","latitude":"41.199502","longitude":"-73.79269","city":"Millwood","state":"New York"},{"zipcode":"10547","state_abbr":"NY","latitude":"41.314676","longitude":"-73.85118","city":"Mohegan Lake","state":"New York"},{"zipcode":"10548","state_abbr":"NY","latitude":"41.248359","longitude":"-73.94147","city":"Montrose","state":"New York"},{"zipcode":"10549","state_abbr":"NY","latitude":"41.204027","longitude":"-73.73045","city":"Mount Kisco","state":"New York"},{"zipcode":"10550","state_abbr":"NY","latitude":"40.907607","longitude":"-73.83709","city":"Mount Vernon","state":"New York"},{"zipcode":"10552","state_abbr":"NY","latitude":"40.924195","longitude":"-73.82614","city":"Mount Vernon","state":"New York"},{"zipcode":"10553","state_abbr":"NY","latitude":"40.909288","longitude":"-73.82150","city":"Mount Vernon","state":"New York"},{"zipcode":"10560","state_abbr":"NY","latitude":"41.327970","longitude":"-73.61306","city":"North Salem","state":"New York"},{"zipcode":"10562","state_abbr":"NY","latitude":"41.176837","longitude":"-73.84741","city":"Ossining","state":"New York"},{"zipcode":"10566","state_abbr":"NY","latitude":"41.288258","longitude":"-73.91928","city":"Peekskill","state":"New York"},{"zipcode":"10567","state_abbr":"NY","latitude":"41.300813","longitude":"-73.89080","city":"Cortlandt Manor","state":"New York"},{"zipcode":"10570","state_abbr":"NY","latitude":"41.132367","longitude":"-73.78922","city":"Pleasantville","state":"New York"},{"zipcode":"10573","state_abbr":"NY","latitude":"41.010376","longitude":"-73.67326","city":"Port Chester","state":"New York"},{"zipcode":"10576","state_abbr":"NY","latitude":"41.212954","longitude":"-73.58409","city":"Pound Ridge","state":"New York"},{"zipcode":"10577","state_abbr":"NY","latitude":"41.037203","longitude":"-73.71588","city":"Purchase","state":"New York"},{"zipcode":"10578","state_abbr":"NY","latitude":"41.325200","longitude":"-73.66906","city":"Purdys","state":"New York"},{"zipcode":"10579","state_abbr":"NY","latitude":"41.390356","longitude":"-73.83770","city":"Putnam Valley","state":"New York"},{"zipcode":"10580","state_abbr":"NY","latitude":"40.976579","longitude":"-73.69002","city":"Rye","state":"New York"},{"zipcode":"10583","state_abbr":"NY","latitude":"40.988450","longitude":"-73.79716","city":"Scarsdale","state":"New York"},{"zipcode":"10588","state_abbr":"NY","latitude":"41.330178","longitude":"-73.82973","city":"Shrub Oak","state":"New York"},{"zipcode":"10589","state_abbr":"NY","latitude":"41.331587","longitude":"-73.69234","city":"Somers","state":"New York"},{"zipcode":"10590","state_abbr":"NY","latitude":"41.256639","longitude":"-73.54076","city":"South Salem","state":"New York"},{"zipcode":"10591","state_abbr":"NY","latitude":"41.080196","longitude":"-73.85721","city":"Tarrytown","state":"New York"},{"zipcode":"10594","state_abbr":"NY","latitude":"41.120025","longitude":"-73.77687","city":"Thornwood","state":"New York"},{"zipcode":"10595","state_abbr":"NY","latitude":"41.083848","longitude":"-73.77785","city":"Valhalla","state":"New York"},{"zipcode":"10597","state_abbr":"NY","latitude":"41.289162","longitude":"-73.58834","city":"Waccabuc","state":"New York"},{"zipcode":"10598","state_abbr":"NY","latitude":"41.296874","longitude":"-73.78934","city":"Yorktown Heights","state":"New York"},{"zipcode":"10601","state_abbr":"NY","latitude":"41.032489","longitude":"-73.76454","city":"White Plains","state":"New York"},{"zipcode":"10603","state_abbr":"NY","latitude":"41.053182","longitude":"-73.77672","city":"White Plains","state":"New York"},{"zipcode":"10604","state_abbr":"NY","latitude":"41.045387","longitude":"-73.74451","city":"West Harrison","state":"New York"},{"zipcode":"10605","state_abbr":"NY","latitude":"41.010020","longitude":"-73.75158","city":"White Plains","state":"New York"},{"zipcode":"10606","state_abbr":"NY","latitude":"41.024107","longitude":"-73.77808","city":"White Plains","state":"New York"},{"zipcode":"10607","state_abbr":"NY","latitude":"41.041191","longitude":"-73.80953","city":"White Plains","state":"New York"},{"zipcode":"10701","state_abbr":"NY","latitude":"40.943525","longitude":"-73.88176","city":"Yonkers","state":"New York"},{"zipcode":"10703","state_abbr":"NY","latitude":"40.956546","longitude":"-73.87990","city":"Yonkers","state":"New York"},{"zipcode":"10704","state_abbr":"NY","latitude":"40.920273","longitude":"-73.86120","city":"Yonkers","state":"New York"},{"zipcode":"10705","state_abbr":"NY","latitude":"40.917281","longitude":"-73.89142","city":"Yonkers","state":"New York"},{"zipcode":"10706","state_abbr":"NY","latitude":"40.992084","longitude":"-73.87290","city":"Hastings On Hudson","state":"New York"},{"zipcode":"10707","state_abbr":"NY","latitude":"40.958689","longitude":"-73.82363","city":"Tuckahoe","state":"New York"},{"zipcode":"10708","state_abbr":"NY","latitude":"40.939049","longitude":"-73.83099","city":"Bronxville","state":"New York"},{"zipcode":"10709","state_abbr":"NY","latitude":"40.953849","longitude":"-73.81143","city":"Eastchester","state":"New York"},{"zipcode":"10710","state_abbr":"NY","latitude":"40.965550","longitude":"-73.84506","city":"Yonkers","state":"New York"},{"zipcode":"10801","state_abbr":"NY","latitude":"40.915845","longitude":"-73.78643","city":"New Rochelle","state":"New York"},{"zipcode":"10803","state_abbr":"NY","latitude":"40.902221","longitude":"-73.80717","city":"Pelham","state":"New York"},{"zipcode":"10804","state_abbr":"NY","latitude":"40.946805","longitude":"-73.78797","city":"New Rochelle","state":"New York"},{"zipcode":"10805","state_abbr":"NY","latitude":"40.897783","longitude":"-73.77933","city":"New Rochelle","state":"New York"},{"zipcode":"10901","state_abbr":"NY","latitude":"41.125695","longitude":"-74.12682","city":"Suffern","state":"New York"},{"zipcode":"10913","state_abbr":"NY","latitude":"41.062779","longitude":"-73.96016","city":"Blauvelt","state":"New York"},{"zipcode":"10916","state_abbr":"NY","latitude":"41.451074","longitude":"-74.24346","city":"Campbell Hall","state":"New York"},{"zipcode":"10917","state_abbr":"NY","latitude":"41.322344","longitude":"-74.12354","city":"Central Valley","state":"New York"},{"zipcode":"10918","state_abbr":"NY","latitude":"41.356480","longitude":"-74.26072","city":"Chester","state":"New York"},{"zipcode":"10919","state_abbr":"NY","latitude":"41.525781","longitude":"-74.37907","city":"Circleville","state":"New York"},{"zipcode":"10920","state_abbr":"NY","latitude":"41.149245","longitude":"-73.94287","city":"Congers","state":"New York"},{"zipcode":"10921","state_abbr":"NY","latitude":"41.332519","longitude":"-74.35931","city":"Florida","state":"New York"},{"zipcode":"10923","state_abbr":"NY","latitude":"41.204544","longitude":"-74.00161","city":"Garnerville","state":"New York"},{"zipcode":"10924","state_abbr":"NY","latitude":"41.389280","longitude":"-74.33370","city":"Goshen","state":"New York"},{"zipcode":"10925","state_abbr":"NY","latitude":"41.211794","longitude":"-74.29778","city":"Greenwood Lake","state":"New York"},{"zipcode":"10926","state_abbr":"NY","latitude":"41.299334","longitude":"-74.14049","city":"Harriman","state":"New York"},{"zipcode":"10927","state_abbr":"NY","latitude":"41.196044","longitude":"-73.96836","city":"Haverstraw","state":"New York"},{"zipcode":"10928","state_abbr":"NY","latitude":"41.360336","longitude":"-73.97293","city":"Highland Falls","state":"New York"},{"zipcode":"10930","state_abbr":"NY","latitude":"41.358050","longitude":"-74.12096","city":"Highland Mills","state":"New York"},{"zipcode":"10931","state_abbr":"NY","latitude":"41.126395","longitude":"-74.16718","city":"Hillburn","state":"New York"},{"zipcode":"10940","state_abbr":"NY","latitude":"41.449364","longitude":"-74.43951","city":"Middletown","state":"New York"},{"zipcode":"10941","state_abbr":"NY","latitude":"41.478028","longitude":"-74.35844","city":"Middletown","state":"New York"},{"zipcode":"10950","state_abbr":"NY","latitude":"41.323547","longitude":"-74.19531","city":"Monroe","state":"New York"},{"zipcode":"10952","state_abbr":"NY","latitude":"41.116162","longitude":"-74.07556","city":"Monsey","state":"New York"},{"zipcode":"10954","state_abbr":"NY","latitude":"41.100182","longitude":"-74.01330","city":"Nanuet","state":"New York"},{"zipcode":"10956","state_abbr":"NY","latitude":"41.145495","longitude":"-73.99490","city":"New City","state":"New York"},{"zipcode":"10958","state_abbr":"NY","latitude":"41.384738","longitude":"-74.41571","city":"New Hampton","state":"New York"},{"zipcode":"10960","state_abbr":"NY","latitude":"41.089746","longitude":"-73.92580","city":"Nyack","state":"New York"},{"zipcode":"10962","state_abbr":"NY","latitude":"41.047996","longitude":"-73.96215","city":"Orangeburg","state":"New York"},{"zipcode":"10963","state_abbr":"NY","latitude":"41.475197","longitude":"-74.53847","city":"Otisville","state":"New York"},{"zipcode":"10964","state_abbr":"NY","latitude":"41.011464","longitude":"-73.92585","city":"Palisades","state":"New York"},{"zipcode":"10965","state_abbr":"NY","latitude":"41.063329","longitude":"-74.01734","city":"Pearl River","state":"New York"},{"zipcode":"10968","state_abbr":"NY","latitude":"41.040623","longitude":"-73.91878","city":"Piermont","state":"New York"},{"zipcode":"10969","state_abbr":"NY","latitude":"41.295568","longitude":"-74.48935","city":"Pine Island","state":"New York"},{"zipcode":"10970","state_abbr":"NY","latitude":"41.192394","longitude":"-74.04523","city":"Pomona","state":"New York"},{"zipcode":"10973","state_abbr":"NY","latitude":"41.391172","longitude":"-74.47758","city":"Slate Hill","state":"New York"},{"zipcode":"10974","state_abbr":"NY","latitude":"41.156095","longitude":"-74.19214","city":"Sloatsburg","state":"New York"},{"zipcode":"10975","state_abbr":"NY","latitude":"41.246428","longitude":"-74.17141","city":"Southfields","state":"New York"},{"zipcode":"10976","state_abbr":"NY","latitude":"41.028647","longitude":"-73.92817","city":"Sparkill","state":"New York"},{"zipcode":"10977","state_abbr":"NY","latitude":"41.116795","longitude":"-74.04504","city":"Spring Valley","state":"New York"},{"zipcode":"10980","state_abbr":"NY","latitude":"41.231408","longitude":"-74.01157","city":"Stony Point","state":"New York"},{"zipcode":"10983","state_abbr":"NY","latitude":"41.025897","longitude":"-73.95118","city":"Tappan","state":"New York"},{"zipcode":"10984","state_abbr":"NY","latitude":"41.208327","longitude":"-74.02105","city":"Thiells","state":"New York"},{"zipcode":"10985","state_abbr":"NY","latitude":"41.580793","longitude":"-74.37451","city":"Thompson Ridge","state":"New York"},{"zipcode":"10986","state_abbr":"NY","latitude":"41.271543","longitude":"-73.98676","city":"Tomkins Cove","state":"New York"},{"zipcode":"10987","state_abbr":"NY","latitude":"41.197123","longitude":"-74.21069","city":"Tuxedo Park","state":"New York"},{"zipcode":"10989","state_abbr":"NY","latitude":"41.119788","longitude":"-73.94455","city":"Valley Cottage","state":"New York"},{"zipcode":"10990","state_abbr":"NY","latitude":"41.259896","longitude":"-74.35837","city":"Warwick","state":"New York"},{"zipcode":"10992","state_abbr":"NY","latitude":"41.428269","longitude":"-74.16178","city":"Washingtonville","state":"New York"},{"zipcode":"10993","state_abbr":"NY","latitude":"41.207594","longitude":"-73.97772","city":"West Haverstraw","state":"New York"},{"zipcode":"10994","state_abbr":"NY","latitude":"41.097529","longitude":"-73.96996","city":"West Nyack","state":"New York"},{"zipcode":"10996","state_abbr":"NY","latitude":"41.376109","longitude":"-73.97880","city":"West Point","state":"New York"},{"zipcode":"10998","state_abbr":"NY","latitude":"41.334034","longitude":"-74.54593","city":"Westtown","state":"New York"},{"zipcode":"11001","state_abbr":"NY","latitude":"40.723200","longitude":"-73.70475","city":"Floral Park","state":"New York"},{"zipcode":"11003","state_abbr":"NY","latitude":"40.700529","longitude":"-73.70223","city":"Elmont","state":"New York"},{"zipcode":"11004","state_abbr":"NY","latitude":"40.742944","longitude":"-73.70956","city":"Glen Oaks","state":"New York"},{"zipcode":"11005","state_abbr":"NY","latitude":"40.756983","longitude":"-73.71480","city":"Floral Park","state":"New York"},{"zipcode":"11010","state_abbr":"NY","latitude":"40.701702","longitude":"-73.67562","city":"Franklin Square","state":"New York"},{"zipcode":"11020","state_abbr":"NY","latitude":"40.771082","longitude":"-73.71819","city":"Great Neck","state":"New York"},{"zipcode":"11021","state_abbr":"NY","latitude":"40.787068","longitude":"-73.72577","city":"Great Neck","state":"New York"},{"zipcode":"11023","state_abbr":"NY","latitude":"40.798839","longitude":"-73.73352","city":"Great Neck","state":"New York"},{"zipcode":"11024","state_abbr":"NY","latitude":"40.812887","longitude":"-73.74094","city":"Great Neck","state":"New York"},{"zipcode":"11030","state_abbr":"NY","latitude":"40.796752","longitude":"-73.68935","city":"Manhasset","state":"New York"},{"zipcode":"11040","state_abbr":"NY","latitude":"40.742901","longitude":"-73.67895","city":"New Hyde Park","state":"New York"},{"zipcode":"11042","state_abbr":"NY","latitude":"40.760128","longitude":"-73.69379","city":"New Hyde Park","state":"New York"},{"zipcode":"11050","state_abbr":"NY","latitude":"40.833246","longitude":"-73.69309","city":"Port Washington","state":"New York"},{"zipcode":"11096","state_abbr":"NY","latitude":"40.618206","longitude":"-73.74762","city":"Inwood","state":"New York"},{"zipcode":"11101","state_abbr":"NY","latitude":"40.745341","longitude":"-73.93907","city":"Long Island City","state":"New York"},{"zipcode":"11102","state_abbr":"NY","latitude":"40.771286","longitude":"-73.92462","city":"Astoria","state":"New York"},{"zipcode":"11103","state_abbr":"NY","latitude":"40.762968","longitude":"-73.91091","city":"Astoria","state":"New York"},{"zipcode":"11104","state_abbr":"NY","latitude":"40.743796","longitude":"-73.91949","city":"Sunnyside","state":"New York"},{"zipcode":"11105","state_abbr":"NY","latitude":"40.774686","longitude":"-73.90816","city":"Astoria","state":"New York"},{"zipcode":"11106","state_abbr":"NY","latitude":"40.762012","longitude":"-73.93147","city":"Astoria","state":"New York"},{"zipcode":"11201","state_abbr":"NY","latitude":"40.695286","longitude":"-73.98907","city":"Brooklyn","state":"New York"},{"zipcode":"11203","state_abbr":"NY","latitude":"40.649059","longitude":"-73.93304","city":"Brooklyn","state":"New York"},{"zipcode":"11204","state_abbr":"NY","latitude":"40.618944","longitude":"-73.98473","city":"Brooklyn","state":"New York"},{"zipcode":"11205","state_abbr":"NY","latitude":"40.694214","longitude":"-73.96529","city":"Brooklyn","state":"New York"},{"zipcode":"11206","state_abbr":"NY","latitude":"40.702348","longitude":"-73.94288","city":"Brooklyn","state":"New York"},{"zipcode":"11207","state_abbr":"NY","latitude":"40.670874","longitude":"-73.89424","city":"Brooklyn","state":"New York"},{"zipcode":"11208","state_abbr":"NY","latitude":"40.672666","longitude":"-73.87248","city":"Brooklyn","state":"New York"},{"zipcode":"11209","state_abbr":"NY","latitude":"40.623270","longitude":"-74.02950","city":"Brooklyn","state":"New York"},{"zipcode":"11210","state_abbr":"NY","latitude":"40.627946","longitude":"-73.94552","city":"Brooklyn","state":"New York"},{"zipcode":"11211","state_abbr":"NY","latitude":"40.712090","longitude":"-73.95427","city":"Brooklyn","state":"New York"},{"zipcode":"11212","state_abbr":"NY","latitude":"40.662191","longitude":"-73.91328","city":"Brooklyn","state":"New York"},{"zipcode":"11213","state_abbr":"NY","latitude":"40.670937","longitude":"-73.93459","city":"Brooklyn","state":"New York"},{"zipcode":"11214","state_abbr":"NY","latitude":"40.598994","longitude":"-73.99611","city":"Brooklyn","state":"New York"},{"zipcode":"11215","state_abbr":"NY","latitude":"40.667508","longitude":"-73.98560","city":"Brooklyn","state":"New York"},{"zipcode":"11216","state_abbr":"NY","latitude":"40.680398","longitude":"-73.94824","city":"Brooklyn","state":"New York"},{"zipcode":"11217","state_abbr":"NY","latitude":"40.682090","longitude":"-73.97783","city":"Brooklyn","state":"New York"},{"zipcode":"11218","state_abbr":"NY","latitude":"40.644552","longitude":"-73.97595","city":"Brooklyn","state":"New York"},{"zipcode":"11219","state_abbr":"NY","latitude":"40.632449","longitude":"-73.99629","city":"Brooklyn","state":"New York"},{"zipcode":"11220","state_abbr":"NY","latitude":"40.641436","longitude":"-74.01574","city":"Brooklyn","state":"New York"},{"zipcode":"11221","state_abbr":"NY","latitude":"40.691234","longitude":"-73.92637","city":"Brooklyn","state":"New York"},{"zipcode":"11222","state_abbr":"NY","latitude":"40.726302","longitude":"-73.94559","city":"Brooklyn","state":"New York"},{"zipcode":"11223","state_abbr":"NY","latitude":"40.598142","longitude":"-73.97229","city":"Brooklyn","state":"New York"},{"zipcode":"11224","state_abbr":"NY","latitude":"40.576589","longitude":"-73.99172","city":"Brooklyn","state":"New York"},{"zipcode":"11225","state_abbr":"NY","latitude":"40.662892","longitude":"-73.95509","city":"Brooklyn","state":"New York"},{"zipcode":"11226","state_abbr":"NY","latitude":"40.645256","longitude":"-73.95553","city":"Brooklyn","state":"New York"},{"zipcode":"11228","state_abbr":"NY","latitude":"40.617563","longitude":"-74.01168","city":"Brooklyn","state":"New York"},{"zipcode":"11229","state_abbr":"NY","latitude":"40.599256","longitude":"-73.94118","city":"Brooklyn","state":"New York"},{"zipcode":"11230","state_abbr":"NY","latitude":"40.622994","longitude":"-73.96427","city":"Brooklyn","state":"New York"},{"zipcode":"11231","state_abbr":"NY","latitude":"40.678800","longitude":"-74.00254","city":"Brooklyn","state":"New York"},{"zipcode":"11232","state_abbr":"NY","latitude":"40.655481","longitude":"-74.00424","city":"Brooklyn","state":"New York"},{"zipcode":"11233","state_abbr":"NY","latitude":"40.676938","longitude":"-73.91858","city":"Brooklyn","state":"New York"},{"zipcode":"11234","state_abbr":"NY","latitude":"40.618561","longitude":"-73.92160","city":"Brooklyn","state":"New York"},{"zipcode":"11235","state_abbr":"NY","latitude":"40.583803","longitude":"-73.95019","city":"Brooklyn","state":"New York"},{"zipcode":"11236","state_abbr":"NY","latitude":"40.640527","longitude":"-73.90362","city":"Brooklyn","state":"New York"},{"zipcode":"11237","state_abbr":"NY","latitude":"40.703355","longitude":"-73.91993","city":"Brooklyn","state":"New York"},{"zipcode":"11238","state_abbr":"NY","latitude":"40.680145","longitude":"-73.96257","city":"Brooklyn","state":"New York"},{"zipcode":"11239","state_abbr":"NY","latitude":"40.645848","longitude":"-73.87919","city":"Brooklyn","state":"New York"},{"zipcode":"11354","state_abbr":"NY","latitude":"40.767969","longitude":"-73.82496","city":"Flushing","state":"New York"},{"zipcode":"11355","state_abbr":"NY","latitude":"40.749463","longitude":"-73.81941","city":"Flushing","state":"New York"},{"zipcode":"11356","state_abbr":"NY","latitude":"40.785462","longitude":"-73.84366","city":"College Point","state":"New York"},{"zipcode":"11357","state_abbr":"NY","latitude":"40.784453","longitude":"-73.80922","city":"Whitestone","state":"New York"},{"zipcode":"11358","state_abbr":"NY","latitude":"40.760522","longitude":"-73.79612","city":"Flushing","state":"New York"},{"zipcode":"11360","state_abbr":"NY","latitude":"40.780386","longitude":"-73.78005","city":"Bayside","state":"New York"},{"zipcode":"11361","state_abbr":"NY","latitude":"40.763177","longitude":"-73.77392","city":"Bayside","state":"New York"},{"zipcode":"11362","state_abbr":"NY","latitude":"40.759686","longitude":"-73.73322","city":"Little Neck","state":"New York"},{"zipcode":"11363","state_abbr":"NY","latitude":"40.772636","longitude":"-73.74644","city":"Little Neck","state":"New York"},{"zipcode":"11364","state_abbr":"NY","latitude":"40.746718","longitude":"-73.75994","city":"Oakland Gardens","state":"New York"},{"zipcode":"11365","state_abbr":"NY","latitude":"40.738983","longitude":"-73.79209","city":"Fresh Meadows","state":"New York"},{"zipcode":"11366","state_abbr":"NY","latitude":"40.726137","longitude":"-73.79502","city":"Fresh Meadows","state":"New York"},{"zipcode":"11367","state_abbr":"NY","latitude":"40.728614","longitude":"-73.82145","city":"Flushing","state":"New York"},{"zipcode":"11368","state_abbr":"NY","latitude":"40.747106","longitude":"-73.85838","city":"Corona","state":"New York"},{"zipcode":"11369","state_abbr":"NY","latitude":"40.762854","longitude":"-73.87051","city":"East Elmhurst","state":"New York"},{"zipcode":"11370","state_abbr":"NY","latitude":"40.763015","longitude":"-73.89052","city":"East Elmhurst","state":"New York"},{"zipcode":"11371","state_abbr":"NY","latitude":"40.772072","longitude":"-73.87509","city":"Flushing","state":"New York"},{"zipcode":"11372","state_abbr":"NY","latitude":"40.750146","longitude":"-73.88433","city":"Jackson Heights","state":"New York"},{"zipcode":"11373","state_abbr":"NY","latitude":"40.736076","longitude":"-73.87804","city":"Elmhurst","state":"New York"},{"zipcode":"11374","state_abbr":"NY","latitude":"40.724945","longitude":"-73.86090","city":"Rego Park","state":"New York"},{"zipcode":"11375","state_abbr":"NY","latitude":"40.720535","longitude":"-73.84582","city":"Forest Hills","state":"New York"},{"zipcode":"11377","state_abbr":"NY","latitude":"40.742869","longitude":"-73.90377","city":"Woodside","state":"New York"},{"zipcode":"11378","state_abbr":"NY","latitude":"40.724096","longitude":"-73.90271","city":"Maspeth","state":"New York"},{"zipcode":"11379","state_abbr":"NY","latitude":"40.716028","longitude":"-73.87925","city":"Middle Village","state":"New York"},{"zipcode":"11385","state_abbr":"NY","latitude":"40.703069","longitude":"-73.89285","city":"Ridgewood","state":"New York"},{"zipcode":"11411","state_abbr":"NY","latitude":"40.693538","longitude":"-73.73574","city":"Cambria Heights","state":"New York"},{"zipcode":"11412","state_abbr":"NY","latitude":"40.697188","longitude":"-73.75948","city":"Saint Albans","state":"New York"},{"zipcode":"11413","state_abbr":"NY","latitude":"40.670138","longitude":"-73.75141","city":"Springfield Gardens","state":"New York"},{"zipcode":"11414","state_abbr":"NY","latitude":"40.658188","longitude":"-73.84321","city":"Howard Beach","state":"New York"},{"zipcode":"11415","state_abbr":"NY","latitude":"40.706903","longitude":"-73.82973","city":"Kew Gardens","state":"New York"},{"zipcode":"11416","state_abbr":"NY","latitude":"40.683301","longitude":"-73.85030","city":"Ozone Park","state":"New York"},{"zipcode":"11417","state_abbr":"NY","latitude":"40.675534","longitude":"-73.84476","city":"Ozone Park","state":"New York"},{"zipcode":"11418","state_abbr":"NY","latitude":"40.698485","longitude":"-73.83365","city":"Richmond Hill","state":"New York"},{"zipcode":"11419","state_abbr":"NY","latitude":"40.688688","longitude":"-73.82216","city":"South Richmond Hill","state":"New York"},{"zipcode":"11420","state_abbr":"NY","latitude":"40.673138","longitude":"-73.81443","city":"South Ozone Park","state":"New York"},{"zipcode":"11421","state_abbr":"NY","latitude":"40.690870","longitude":"-73.85828","city":"Woodhaven","state":"New York"},{"zipcode":"11422","state_abbr":"NY","latitude":"40.662538","longitude":"-73.73514","city":"Rosedale","state":"New York"},{"zipcode":"11423","state_abbr":"NY","latitude":"40.714261","longitude":"-73.76824","city":"Hollis","state":"New York"},{"zipcode":"11426","state_abbr":"NY","latitude":"40.732239","longitude":"-73.72108","city":"Bellerose","state":"New York"},{"zipcode":"11427","state_abbr":"NY","latitude":"40.728235","longitude":"-73.74782","city":"Queens Village","state":"New York"},{"zipcode":"11428","state_abbr":"NY","latitude":"40.719981","longitude":"-73.74127","city":"Queens Village","state":"New York"},{"zipcode":"11429","state_abbr":"NY","latitude":"40.708833","longitude":"-73.73903","city":"Queens Village","state":"New York"},{"zipcode":"11430","state_abbr":"NY","latitude":"40.650519","longitude":"-73.79567","city":"Jamaica","state":"New York"},{"zipcode":"11432","state_abbr":"NY","latitude":"40.714144","longitude":"-73.79324","city":"Jamaica","state":"New York"},{"zipcode":"11433","state_abbr":"NY","latitude":"40.696538","longitude":"-73.78734","city":"Jamaica","state":"New York"},{"zipcode":"11434","state_abbr":"NY","latitude":"40.674888","longitude":"-73.77270","city":"Jamaica","state":"New York"},{"zipcode":"11435","state_abbr":"NY","latitude":"40.700068","longitude":"-73.80986","city":"Jamaica","state":"New York"},{"zipcode":"11436","state_abbr":"NY","latitude":"40.674146","longitude":"-73.79687","city":"Jamaica","state":"New York"},{"zipcode":"11501","state_abbr":"NY","latitude":"40.747188","longitude":"-73.63808","city":"Mineola","state":"New York"},{"zipcode":"11507","state_abbr":"NY","latitude":"40.769942","longitude":"-73.65004","city":"Albertson","state":"New York"},{"zipcode":"11509","state_abbr":"NY","latitude":"40.589538","longitude":"-73.72915","city":"Atlantic Beach","state":"New York"},{"zipcode":"11510","state_abbr":"NY","latitude":"40.654112","longitude":"-73.60950","city":"Baldwin","state":"New York"},{"zipcode":"11514","state_abbr":"NY","latitude":"40.750132","longitude":"-73.61328","city":"Carle Place","state":"New York"},{"zipcode":"11516","state_abbr":"NY","latitude":"40.627386","longitude":"-73.72852","city":"Cedarhurst","state":"New York"},{"zipcode":"11518","state_abbr":"NY","latitude":"40.639575","longitude":"-73.66703","city":"East Rockaway","state":"New York"},{"zipcode":"11520","state_abbr":"NY","latitude":"40.653935","longitude":"-73.58700","city":"Freeport","state":"New York"},{"zipcode":"11530","state_abbr":"NY","latitude":"40.725257","longitude":"-73.64056","city":"Garden City","state":"New York"},{"zipcode":"11542","state_abbr":"NY","latitude":"40.864757","longitude":"-73.62609","city":"Glen Cove","state":"New York"},{"zipcode":"11545","state_abbr":"NY","latitude":"40.823957","longitude":"-73.60415","city":"Glen Head","state":"New York"},{"zipcode":"11547","state_abbr":"NY","latitude":"40.828143","longitude":"-73.64401","city":"Glenwood Landing","state":"New York"},{"zipcode":"11548","state_abbr":"NY","latitude":"40.813187","longitude":"-73.62561","city":"Greenvale","state":"New York"},{"zipcode":"11550","state_abbr":"NY","latitude":"40.702271","longitude":"-73.61741","city":"Hempstead","state":"New York"},{"zipcode":"11552","state_abbr":"NY","latitude":"40.694900","longitude":"-73.65394","city":"West Hempstead","state":"New York"},{"zipcode":"11553","state_abbr":"NY","latitude":"40.703502","longitude":"-73.59306","city":"Uniondale","state":"New York"},{"zipcode":"11554","state_abbr":"NY","latitude":"40.714300","longitude":"-73.55527","city":"East Meadow","state":"New York"},{"zipcode":"11557","state_abbr":"NY","latitude":"40.639534","longitude":"-73.69253","city":"Hewlett","state":"New York"},{"zipcode":"11558","state_abbr":"NY","latitude":"40.603159","longitude":"-73.65515","city":"Island Park","state":"New York"},{"zipcode":"11559","state_abbr":"NY","latitude":"40.615790","longitude":"-73.73126","city":"Lawrence","state":"New York"},{"zipcode":"11560","state_abbr":"NY","latitude":"40.881957","longitude":"-73.59417","city":"Locust Valley","state":"New York"},{"zipcode":"11561","state_abbr":"NY","latitude":"40.588154","longitude":"-73.66517","city":"Long Beach","state":"New York"},{"zipcode":"11563","state_abbr":"NY","latitude":"40.656974","longitude":"-73.67306","city":"Lynbrook","state":"New York"},{"zipcode":"11565","state_abbr":"NY","latitude":"40.675249","longitude":"-73.67298","city":"Malverne","state":"New York"},{"zipcode":"11566","state_abbr":"NY","latitude":"40.666575","longitude":"-73.55475","city":"Merrick","state":"New York"},{"zipcode":"11568","state_abbr":"NY","latitude":"40.787368","longitude":"-73.60119","city":"Old Westbury","state":"New York"},{"zipcode":"11569","state_abbr":"NY","latitude":"40.593996","longitude":"-73.58039","city":"Point Lookout","state":"New York"},{"zipcode":"11570","state_abbr":"NY","latitude":"40.663935","longitude":"-73.63792","city":"Rockville Centre","state":"New York"},{"zipcode":"11572","state_abbr":"NY","latitude":"40.636286","longitude":"-73.63740","city":"Oceanside","state":"New York"},{"zipcode":"11575","state_abbr":"NY","latitude":"40.679413","longitude":"-73.58694","city":"Roosevelt","state":"New York"},{"zipcode":"11576","state_abbr":"NY","latitude":"40.793839","longitude":"-73.65156","city":"Roslyn","state":"New York"},{"zipcode":"11577","state_abbr":"NY","latitude":"40.785642","longitude":"-73.64006","city":"Roslyn Heights","state":"New York"},{"zipcode":"11579","state_abbr":"NY","latitude":"40.846388","longitude":"-73.64452","city":"Sea Cliff","state":"New York"},{"zipcode":"11580","state_abbr":"NY","latitude":"40.673000","longitude":"-73.70346","city":"Valley Stream","state":"New York"},{"zipcode":"11581","state_abbr":"NY","latitude":"40.651733","longitude":"-73.71079","city":"Valley Stream","state":"New York"},{"zipcode":"11590","state_abbr":"NY","latitude":"40.756287","longitude":"-73.57536","city":"Westbury","state":"New York"},{"zipcode":"11596","state_abbr":"NY","latitude":"40.758283","longitude":"-73.64259","city":"Williston Park","state":"New York"},{"zipcode":"11598","state_abbr":"NY","latitude":"40.633103","longitude":"-73.71404","city":"Woodmere","state":"New York"},{"zipcode":"11691","state_abbr":"NY","latitude":"40.600020","longitude":"-73.75962","city":"Far Rockaway","state":"New York"},{"zipcode":"11692","state_abbr":"NY","latitude":"40.592939","longitude":"-73.79568","city":"Arverne","state":"New York"},{"zipcode":"11693","state_abbr":"NY","latitude":"40.596959","longitude":"-73.81978","city":"Far Rockaway","state":"New York"},{"zipcode":"11694","state_abbr":"NY","latitude":"40.576490","longitude":"-73.84721","city":"Rockaway Park","state":"New York"},{"zipcode":"11697","state_abbr":"NY","latitude":"40.560167","longitude":"-73.90891","city":"Breezy Point","state":"New York"},{"zipcode":"11701","state_abbr":"NY","latitude":"40.685100","longitude":"-73.41317","city":"Amityville","state":"New York"},{"zipcode":"11702","state_abbr":"NY","latitude":"40.687649","longitude":"-73.32549","city":"Babylon","state":"New York"},{"zipcode":"11703","state_abbr":"NY","latitude":"40.733398","longitude":"-73.32257","city":"North Babylon","state":"New York"},{"zipcode":"11704","state_abbr":"NY","latitude":"40.719249","longitude":"-73.35829","city":"West Babylon","state":"New York"},{"zipcode":"11705","state_abbr":"NY","latitude":"40.744850","longitude":"-73.05500","city":"Bayport","state":"New York"},{"zipcode":"11706","state_abbr":"NY","latitude":"40.729098","longitude":"-73.25607","city":"Bay Shore","state":"New York"},{"zipcode":"11709","state_abbr":"NY","latitude":"40.907277","longitude":"-73.55713","city":"Bayville","state":"New York"},{"zipcode":"11710","state_abbr":"NY","latitude":"40.673438","longitude":"-73.53382","city":"Bellmore","state":"New York"},{"zipcode":"11713","state_abbr":"NY","latitude":"40.771447","longitude":"-72.94663","city":"Bellport","state":"New York"},{"zipcode":"11714","state_abbr":"NY","latitude":"40.740662","longitude":"-73.48631","city":"Bethpage","state":"New York"},{"zipcode":"11715","state_abbr":"NY","latitude":"40.748970","longitude":"-73.03436","city":"Blue Point","state":"New York"},{"zipcode":"11716","state_abbr":"NY","latitude":"40.770042","longitude":"-73.11376","city":"Bohemia","state":"New York"},{"zipcode":"11717","state_abbr":"NY","latitude":"40.783954","longitude":"-73.24517","city":"Brentwood","state":"New York"},{"zipcode":"11718","state_abbr":"NY","latitude":"40.720746","longitude":"-73.26614","city":"Brightwaters","state":"New York"},{"zipcode":"11719","state_abbr":"NY","latitude":"40.780058","longitude":"-72.91566","city":"Brookhaven","state":"New York"},{"zipcode":"11720","state_abbr":"NY","latitude":"40.868946","longitude":"-73.08009","city":"Centereach","state":"New York"},{"zipcode":"11721","state_abbr":"NY","latitude":"40.890598","longitude":"-73.37536","city":"Centerport","state":"New York"},{"zipcode":"11722","state_abbr":"NY","latitude":"40.784874","longitude":"-73.19924","city":"Central Islip","state":"New York"},{"zipcode":"11724","state_abbr":"NY","latitude":"40.865731","longitude":"-73.44645","city":"Cold Spring Harbor","state":"New York"},{"zipcode":"11725","state_abbr":"NY","latitude":"40.841522","longitude":"-73.28001","city":"Commack","state":"New York"},{"zipcode":"11726","state_abbr":"NY","latitude":"40.680892","longitude":"-73.39609","city":"Copiague","state":"New York"},{"zipcode":"11727","state_abbr":"NY","latitude":"40.884895","longitude":"-73.00501","city":"Coram","state":"New York"},{"zipcode":"11729","state_abbr":"NY","latitude":"40.760698","longitude":"-73.33007","city":"Deer Park","state":"New York"},{"zipcode":"11730","state_abbr":"NY","latitude":"40.729210","longitude":"-73.18073","city":"East Islip","state":"New York"},{"zipcode":"11731","state_abbr":"NY","latitude":"40.865998","longitude":"-73.31796","city":"East Northport","state":"New York"},{"zipcode":"11732","state_abbr":"NY","latitude":"40.848766","longitude":"-73.53478","city":"East Norwich","state":"New York"},{"zipcode":"11733","state_abbr":"NY","latitude":"40.932053","longitude":"-73.10666","city":"East Setauket","state":"New York"},{"zipcode":"11735","state_abbr":"NY","latitude":"40.725968","longitude":"-73.44151","city":"Farmingdale","state":"New York"},{"zipcode":"11738","state_abbr":"NY","latitude":"40.834690","longitude":"-73.03860","city":"Farmingville","state":"New York"},{"zipcode":"11740","state_abbr":"NY","latitude":"40.862565","longitude":"-73.36221","city":"Greenlawn","state":"New York"},{"zipcode":"11741","state_abbr":"NY","latitude":"40.799706","longitude":"-73.07485","city":"Holbrook","state":"New York"},{"zipcode":"11742","state_abbr":"NY","latitude":"40.810606","longitude":"-73.04036","city":"Holtsville","state":"New York"},{"zipcode":"11743","state_abbr":"NY","latitude":"40.867498","longitude":"-73.41146","city":"Huntington","state":"New York"},{"zipcode":"11746","state_abbr":"NY","latitude":"40.821698","longitude":"-73.37553","city":"Huntington Station","state":"New York"},{"zipcode":"11747","state_abbr":"NY","latitude":"40.791593","longitude":"-73.40543","city":"Melville","state":"New York"},{"zipcode":"11751","state_abbr":"NY","latitude":"40.734212","longitude":"-73.21416","city":"Islip","state":"New York"},{"zipcode":"11752","state_abbr":"NY","latitude":"40.754386","longitude":"-73.18326","city":"Islip Terrace","state":"New York"},{"zipcode":"11753","state_abbr":"NY","latitude":"40.786544","longitude":"-73.53675","city":"Jericho","state":"New York"},{"zipcode":"11754","state_abbr":"NY","latitude":"40.888497","longitude":"-73.24258","city":"Kings Park","state":"New York"},{"zipcode":"11755","state_abbr":"NY","latitude":"40.855402","longitude":"-73.11839","city":"Lake Grove","state":"New York"},{"zipcode":"11756","state_abbr":"NY","latitude":"40.724883","longitude":"-73.51739","city":"Levittown","state":"New York"},{"zipcode":"11757","state_abbr":"NY","latitude":"40.690049","longitude":"-73.37442","city":"Lindenhurst","state":"New York"},{"zipcode":"11758","state_abbr":"NY","latitude":"40.680850","longitude":"-73.46289","city":"Massapequa","state":"New York"},{"zipcode":"11762","state_abbr":"NY","latitude":"40.685050","longitude":"-73.44681","city":"Massapequa Park","state":"New York"},{"zipcode":"11763","state_abbr":"NY","latitude":"40.820786","longitude":"-72.98375","city":"Medford","state":"New York"},{"zipcode":"11764","state_abbr":"NY","latitude":"40.946506","longitude":"-72.98837","city":"Miller Place","state":"New York"},{"zipcode":"11765","state_abbr":"NY","latitude":"40.888890","longitude":"-73.55608","city":"Mill Neck","state":"New York"},{"zipcode":"11766","state_abbr":"NY","latitude":"40.929242","longitude":"-73.01317","city":"Mount Sinai","state":"New York"},{"zipcode":"11767","state_abbr":"NY","latitude":"40.842962","longitude":"-73.14303","city":"Nesconset","state":"New York"},{"zipcode":"11768","state_abbr":"NY","latitude":"40.905647","longitude":"-73.33114","city":"Northport","state":"New York"},{"zipcode":"11769","state_abbr":"NY","latitude":"40.736011","longitude":"-73.12960","city":"Oakdale","state":"New York"},{"zipcode":"11770","state_abbr":"NY","latitude":"40.643951","longitude":"-73.16115","city":"Ocean Beach","state":"New York"},{"zipcode":"11771","state_abbr":"NY","latitude":"40.868882","longitude":"-73.52292","city":"Oyster Bay","state":"New York"},{"zipcode":"11772","state_abbr":"NY","latitude":"40.770898","longitude":"-73.00213","city":"Patchogue","state":"New York"},{"zipcode":"11776","state_abbr":"NY","latitude":"40.911082","longitude":"-73.04966","city":"Port Jefferson Station","state":"New York"},{"zipcode":"11777","state_abbr":"NY","latitude":"40.946103","longitude":"-73.06222","city":"Port Jefferson","state":"New York"},{"zipcode":"11778","state_abbr":"NY","latitude":"40.954093","longitude":"-72.92884","city":"Rocky Point","state":"New York"},{"zipcode":"11779","state_abbr":"NY","latitude":"40.818826","longitude":"-73.11870","city":"Ronkonkoma","state":"New York"},{"zipcode":"11780","state_abbr":"NY","latitude":"40.884394","longitude":"-73.15868","city":"Saint James","state":"New York"},{"zipcode":"11782","state_abbr":"NY","latitude":"40.739869","longitude":"-73.07198","city":"Sayville","state":"New York"},{"zipcode":"11783","state_abbr":"NY","latitude":"40.679752","longitude":"-73.48959","city":"Seaford","state":"New York"},{"zipcode":"11784","state_abbr":"NY","latitude":"40.869274","longitude":"-73.04254","city":"Selden","state":"New York"},{"zipcode":"11786","state_abbr":"NY","latitude":"40.949930","longitude":"-72.89533","city":"Shoreham","state":"New York"},{"zipcode":"11787","state_abbr":"NY","latitude":"40.853343","longitude":"-73.20777","city":"Smithtown","state":"New York"},{"zipcode":"11788","state_abbr":"NY","latitude":"40.819266","longitude":"-73.20967","city":"Hauppauge","state":"New York"},{"zipcode":"11789","state_abbr":"NY","latitude":"40.955586","longitude":"-72.97330","city":"Sound Beach","state":"New York"},{"zipcode":"11790","state_abbr":"NY","latitude":"40.906174","longitude":"-73.12748","city":"Stony Brook","state":"New York"},{"zipcode":"11791","state_abbr":"NY","latitude":"40.815215","longitude":"-73.50057","city":"Syosset","state":"New York"},{"zipcode":"11792","state_abbr":"NY","latitude":"40.953261","longitude":"-72.83680","city":"Wading River","state":"New York"},{"zipcode":"11793","state_abbr":"NY","latitude":"40.676649","longitude":"-73.51122","city":"Wantagh","state":"New York"},{"zipcode":"11795","state_abbr":"NY","latitude":"40.713459","longitude":"-73.30010","city":"West Islip","state":"New York"},{"zipcode":"11796","state_abbr":"NY","latitude":"40.731954","longitude":"-73.10081","city":"West Sayville","state":"New York"},{"zipcode":"11797","state_abbr":"NY","latitude":"40.813801","longitude":"-73.46912","city":"Woodbury","state":"New York"},{"zipcode":"11798","state_abbr":"NY","latitude":"40.752098","longitude":"-73.36516","city":"Wyandanch","state":"New York"},{"zipcode":"11801","state_abbr":"NY","latitude":"40.763355","longitude":"-73.52323","city":"Hicksville","state":"New York"},{"zipcode":"11803","state_abbr":"NY","latitude":"40.779911","longitude":"-73.47948","city":"Plainview","state":"New York"},{"zipcode":"11804","state_abbr":"NY","latitude":"40.765378","longitude":"-73.45781","city":"Old Bethpage","state":"New York"},{"zipcode":"11901","state_abbr":"NY","latitude":"40.926595","longitude":"-72.65327","city":"Riverhead","state":"New York"},{"zipcode":"11930","state_abbr":"NY","latitude":"40.985301","longitude":"-72.10411","city":"Amagansett","state":"New York"},{"zipcode":"11932","state_abbr":"NY","latitude":"40.939075","longitude":"-72.30514","city":"Bridgehampton","state":"New York"},{"zipcode":"11933","state_abbr":"NY","latitude":"40.933429","longitude":"-72.74646","city":"Calverton","state":"New York"},{"zipcode":"11934","state_abbr":"NY","latitude":"40.797772","longitude":"-72.79719","city":"Center Moriches","state":"New York"},{"zipcode":"11935","state_abbr":"NY","latitude":"41.012868","longitude":"-72.47230","city":"Cutchogue","state":"New York"},{"zipcode":"11937","state_abbr":"NY","latitude":"40.995384","longitude":"-72.18564","city":"East Hampton","state":"New York"},{"zipcode":"11939","state_abbr":"NY","latitude":"41.128923","longitude":"-72.34189","city":"East Marion","state":"New York"},{"zipcode":"11940","state_abbr":"NY","latitude":"40.806287","longitude":"-72.75673","city":"East Moriches","state":"New York"},{"zipcode":"11941","state_abbr":"NY","latitude":"40.824658","longitude":"-72.72356","city":"Eastport","state":"New York"},{"zipcode":"11942","state_abbr":"NY","latitude":"40.848670","longitude":"-72.57794","city":"East Quogue","state":"New York"},{"zipcode":"11944","state_abbr":"NY","latitude":"41.103838","longitude":"-72.36729","city":"Greenport","state":"New York"},{"zipcode":"11946","state_abbr":"NY","latitude":"40.875897","longitude":"-72.52063","city":"Hampton Bays","state":"New York"},{"zipcode":"11947","state_abbr":"NY","latitude":"40.943323","longitude":"-72.57996","city":"Jamesport","state":"New York"},{"zipcode":"11948","state_abbr":"NY","latitude":"40.961916","longitude":"-72.55024","city":"Laurel","state":"New York"},{"zipcode":"11949","state_abbr":"NY","latitude":"40.855861","longitude":"-72.79736","city":"Manorville","state":"New York"},{"zipcode":"11950","state_abbr":"NY","latitude":"40.804810","longitude":"-72.84664","city":"Mastic","state":"New York"},{"zipcode":"11951","state_abbr":"NY","latitude":"40.763634","longitude":"-72.84554","city":"Mastic Beach","state":"New York"},{"zipcode":"11952","state_abbr":"NY","latitude":"40.994649","longitude":"-72.53731","city":"Mattituck","state":"New York"},{"zipcode":"11953","state_abbr":"NY","latitude":"40.886267","longitude":"-72.95520","city":"Middle Island","state":"New York"},{"zipcode":"11954","state_abbr":"NY","latitude":"41.038310","longitude":"-71.95060","city":"Montauk","state":"New York"},{"zipcode":"11955","state_abbr":"NY","latitude":"40.805789","longitude":"-72.82092","city":"Moriches","state":"New York"},{"zipcode":"11956","state_abbr":"NY","latitude":"40.991836","longitude":"-72.47505","city":"New Suffolk","state":"New York"},{"zipcode":"11957","state_abbr":"NY","latitude":"41.151826","longitude":"-72.27511","city":"Orient","state":"New York"},{"zipcode":"11958","state_abbr":"NY","latitude":"41.036870","longitude":"-72.45341","city":"Peconic","state":"New York"},{"zipcode":"11959","state_abbr":"NY","latitude":"40.825411","longitude":"-72.60506","city":"Quogue","state":"New York"},{"zipcode":"11960","state_abbr":"NY","latitude":"40.803923","longitude":"-72.70421","city":"Remsenburg","state":"New York"},{"zipcode":"11961","state_abbr":"NY","latitude":"40.896090","longitude":"-72.87824","city":"Ridge","state":"New York"},{"zipcode":"11962","state_abbr":"NY","latitude":"40.937683","longitude":"-72.26831","city":"Sagaponack","state":"New York"},{"zipcode":"11963","state_abbr":"NY","latitude":"40.996280","longitude":"-72.31074","city":"Sag Harbor","state":"New York"},{"zipcode":"11964","state_abbr":"NY","latitude":"41.060843","longitude":"-72.33159","city":"Shelter Island","state":"New York"},{"zipcode":"11965","state_abbr":"NY","latitude":"41.078150","longitude":"-72.35093","city":"Shelter Island Heights","state":"New York"},{"zipcode":"11967","state_abbr":"NY","latitude":"40.794317","longitude":"-72.87181","city":"Shirley","state":"New York"},{"zipcode":"11968","state_abbr":"NY","latitude":"40.904348","longitude":"-72.40714","city":"Southampton","state":"New York"},{"zipcode":"11970","state_abbr":"NY","latitude":"40.941363","longitude":"-72.57502","city":"South Jamesport","state":"New York"},{"zipcode":"11971","state_abbr":"NY","latitude":"41.059209","longitude":"-72.42041","city":"Southold","state":"New York"},{"zipcode":"11972","state_abbr":"NY","latitude":"40.820400","longitude":"-72.70113","city":"Speonk","state":"New York"},{"zipcode":"11975","state_abbr":"NY","latitude":"40.947419","longitude":"-72.24505","city":"Wainscott","state":"New York"},{"zipcode":"11976","state_abbr":"NY","latitude":"40.919693","longitude":"-72.34407","city":"Water Mill","state":"New York"},{"zipcode":"11977","state_abbr":"NY","latitude":"40.818190","longitude":"-72.67835","city":"Westhampton","state":"New York"},{"zipcode":"11978","state_abbr":"NY","latitude":"40.816142","longitude":"-72.63449","city":"Westhampton Beach","state":"New York"},{"zipcode":"11980","state_abbr":"NY","latitude":"40.832858","longitude":"-72.91611","city":"Yaphank","state":"New York"},{"zipcode":"12008","state_abbr":"NY","latitude":"42.853043","longitude":"-73.90290","city":"Alplaus","state":"New York"},{"zipcode":"12009","state_abbr":"NY","latitude":"42.698692","longitude":"-74.03148","city":"Altamont","state":"New York"},{"zipcode":"12010","state_abbr":"NY","latitude":"42.940644","longitude":"-74.17899","city":"Amsterdam","state":"New York"},{"zipcode":"12015","state_abbr":"NY","latitude":"42.279649","longitude":"-73.81701","city":"Athens","state":"New York"},{"zipcode":"12017","state_abbr":"NY","latitude":"42.323565","longitude":"-73.45257","city":"Austerlitz","state":"New York"},{"zipcode":"12018","state_abbr":"NY","latitude":"42.627420","longitude":"-73.53494","city":"Averill Park","state":"New York"},{"zipcode":"12019","state_abbr":"NY","latitude":"42.916343","longitude":"-73.86657","city":"Ballston Lake","state":"New York"},{"zipcode":"12020","state_abbr":"NY","latitude":"43.006309","longitude":"-73.86040","city":"Ballston Spa","state":"New York"},{"zipcode":"12022","state_abbr":"NY","latitude":"42.681107","longitude":"-73.34890","city":"Berlin","state":"New York"},{"zipcode":"12023","state_abbr":"NY","latitude":"42.610306","longitude":"-74.15692","city":"Berne","state":"New York"},{"zipcode":"12025","state_abbr":"NY","latitude":"43.076810","longitude":"-74.15332","city":"Broadalbin","state":"New York"},{"zipcode":"12027","state_abbr":"NY","latitude":"42.912175","longitude":"-73.90355","city":"Burnt Hills","state":"New York"},{"zipcode":"12028","state_abbr":"NY","latitude":"42.932315","longitude":"-73.44521","city":"Buskirk","state":"New York"},{"zipcode":"12029","state_abbr":"NY","latitude":"42.399159","longitude":"-73.42757","city":"Canaan","state":"New York"},{"zipcode":"12031","state_abbr":"NY","latitude":"42.770985","longitude":"-74.44694","city":"Carlisle","state":"New York"},{"zipcode":"12032","state_abbr":"NY","latitude":"43.158567","longitude":"-74.49646","city":"Caroga Lake","state":"New York"},{"zipcode":"12033","state_abbr":"NY","latitude":"42.534631","longitude":"-73.71327","city":"Castleton On Hudson","state":"New York"},{"zipcode":"12035","state_abbr":"NY","latitude":"42.722477","longitude":"-74.35064","city":"Central Bridge","state":"New York"},{"zipcode":"12036","state_abbr":"NY","latitude":"42.546034","longitude":"-74.67315","city":"Charlotteville","state":"New York"},{"zipcode":"12037","state_abbr":"NY","latitude":"42.346758","longitude":"-73.57852","city":"Chatham","state":"New York"},{"zipcode":"12041","state_abbr":"NY","latitude":"42.543326","longitude":"-73.97403","city":"Clarksville","state":"New York"},{"zipcode":"12042","state_abbr":"NY","latitude":"42.403719","longitude":"-73.90875","city":"Climax","state":"New York"},{"zipcode":"12043","state_abbr":"NY","latitude":"42.696926","longitude":"-74.52436","city":"Cobleskill","state":"New York"},{"zipcode":"12045","state_abbr":"NY","latitude":"42.474135","longitude":"-73.79335","city":"Coeymans","state":"New York"},{"zipcode":"12046","state_abbr":"NY","latitude":"42.475609","longitude":"-73.92656","city":"Coeymans Hollow","state":"New York"},{"zipcode":"12047","state_abbr":"NY","latitude":"42.773777","longitude":"-73.70793","city":"Cohoes","state":"New York"},{"zipcode":"12051","state_abbr":"NY","latitude":"42.353773","longitude":"-73.82774","city":"Coxsackie","state":"New York"},{"zipcode":"12052","state_abbr":"NY","latitude":"42.748910","longitude":"-73.49405","city":"Cropseyville","state":"New York"},{"zipcode":"12053","state_abbr":"NY","latitude":"42.749499","longitude":"-74.18601","city":"Delanson","state":"New York"},{"zipcode":"12054","state_abbr":"NY","latitude":"42.614979","longitude":"-73.84086","city":"Delmar","state":"New York"},{"zipcode":"12056","state_abbr":"NY","latitude":"42.767853","longitude":"-74.09083","city":"Duanesburg","state":"New York"},{"zipcode":"12057","state_abbr":"NY","latitude":"42.959229","longitude":"-73.35236","city":"Eagle Bridge","state":"New York"},{"zipcode":"12058","state_abbr":"NY","latitude":"42.350557","longitude":"-73.91978","city":"Earlton","state":"New York"},{"zipcode":"12059","state_abbr":"NY","latitude":"42.621933","longitude":"-74.05574","city":"East Berne","state":"New York"},{"zipcode":"12060","state_abbr":"NY","latitude":"42.419560","longitude":"-73.50412","city":"East Chatham","state":"New York"},{"zipcode":"12061","state_abbr":"NY","latitude":"42.593047","longitude":"-73.67343","city":"East Greenbush","state":"New York"},{"zipcode":"12062","state_abbr":"NY","latitude":"42.525531","longitude":"-73.50207","city":"East Nassau","state":"New York"},{"zipcode":"12063","state_abbr":"NY","latitude":"42.559697","longitude":"-73.63335","city":"East Schodack","state":"New York"},{"zipcode":"12064","state_abbr":"NY","latitude":"42.615422","longitude":"-74.65950","city":"East Worcester","state":"New York"},{"zipcode":"12065","state_abbr":"NY","latitude":"42.853676","longitude":"-73.78445","city":"Clifton Park","state":"New York"},{"zipcode":"12066","state_abbr":"NY","latitude":"42.784091","longitude":"-74.31160","city":"Esperance","state":"New York"},{"zipcode":"12067","state_abbr":"NY","latitude":"42.561226","longitude":"-73.92528","city":"Feura Bush","state":"New York"},{"zipcode":"12068","state_abbr":"NY","latitude":"42.953913","longitude":"-74.37883","city":"Fonda","state":"New York"},{"zipcode":"12070","state_abbr":"NY","latitude":"42.970827","longitude":"-74.24778","city":"Fort Johnson","state":"New York"},{"zipcode":"12071","state_abbr":"NY","latitude":"42.565907","longitude":"-74.41457","city":"Fultonham","state":"New York"},{"zipcode":"12072","state_abbr":"NY","latitude":"42.896974","longitude":"-74.37495","city":"Fultonville","state":"New York"},{"zipcode":"12074","state_abbr":"NY","latitude":"43.068203","longitude":"-74.05526","city":"Galway","state":"New York"},{"zipcode":"12075","state_abbr":"NY","latitude":"42.305793","longitude":"-73.65140","city":"Ghent","state":"New York"},{"zipcode":"12076","state_abbr":"NY","latitude":"42.425405","longitude":"-74.40616","city":"Gilboa","state":"New York"},{"zipcode":"12077","state_abbr":"NY","latitude":"42.600551","longitude":"-73.79621","city":"Glenmont","state":"New York"},{"zipcode":"12078","state_abbr":"NY","latitude":"43.069562","longitude":"-74.34360","city":"Gloversville","state":"New York"},{"zipcode":"12083","state_abbr":"NY","latitude":"42.430684","longitude":"-74.03728","city":"Greenville","state":"New York"},{"zipcode":"12084","state_abbr":"NY","latitude":"42.698231","longitude":"-73.89906","city":"Guilderland","state":"New York"},{"zipcode":"12086","state_abbr":"NY","latitude":"42.981745","longitude":"-74.14257","city":"Hagaman","state":"New York"},{"zipcode":"12087","state_abbr":"NY","latitude":"42.434883","longitude":"-73.89271","city":"Hannacroix","state":"New York"},{"zipcode":"12090","state_abbr":"NY","latitude":"42.888816","longitude":"-73.35550","city":"Hoosick Falls","state":"New York"},{"zipcode":"12092","state_abbr":"NY","latitude":"42.691779","longitude":"-74.37513","city":"Howes Cave","state":"New York"},{"zipcode":"12093","state_abbr":"NY","latitude":"42.496939","longitude":"-74.62813","city":"Jefferson","state":"New York"},{"zipcode":"12094","state_abbr":"NY","latitude":"42.899334","longitude":"-73.49006","city":"Johnsonville","state":"New York"},{"zipcode":"12095","state_abbr":"NY","latitude":"43.014523","longitude":"-74.38473","city":"Johnstown","state":"New York"},{"zipcode":"12106","state_abbr":"NY","latitude":"42.388394","longitude":"-73.70726","city":"Kinderhook","state":"New York"},{"zipcode":"12108","state_abbr":"NY","latitude":"43.525388","longitude":"-74.40875","city":"Lake Pleasant","state":"New York"},{"zipcode":"12110","state_abbr":"NY","latitude":"42.749640","longitude":"-73.76802","city":"Latham","state":"New York"},{"zipcode":"12115","state_abbr":"NY","latitude":"42.469991","longitude":"-73.58587","city":"Malden Bridge","state":"New York"},{"zipcode":"12116","state_abbr":"NY","latitude":"42.538589","longitude":"-74.92185","city":"Maryland","state":"New York"},{"zipcode":"12117","state_abbr":"NY","latitude":"43.146907","longitude":"-74.23466","city":"Mayfield","state":"New York"},{"zipcode":"12118","state_abbr":"NY","latitude":"42.915904","longitude":"-73.70539","city":"Mechanicville","state":"New York"},{"zipcode":"12120","state_abbr":"NY","latitude":"42.456127","longitude":"-74.14059","city":"Medusa","state":"New York"},{"zipcode":"12121","state_abbr":"NY","latitude":"42.851106","longitude":"-73.61867","city":"Melrose","state":"New York"},{"zipcode":"12122","state_abbr":"NY","latitude":"42.558318","longitude":"-74.31458","city":"Middleburgh","state":"New York"},{"zipcode":"12123","state_abbr":"NY","latitude":"42.522197","longitude":"-73.60613","city":"Nassau","state":"New York"},{"zipcode":"12125","state_abbr":"NY","latitude":"42.474028","longitude":"-73.40750","city":"New Lebanon","state":"New York"},{"zipcode":"12130","state_abbr":"NY","latitude":"42.442592","longitude":"-73.65778","city":"Niverville","state":"New York"},{"zipcode":"12131","state_abbr":"NY","latitude":"42.482123","longitude":"-74.45715","city":"North Blenheim","state":"New York"},{"zipcode":"12134","state_abbr":"NY","latitude":"43.218920","longitude":"-74.14822","city":"Northville","state":"New York"},{"zipcode":"12136","state_abbr":"NY","latitude":"42.437594","longitude":"-73.55599","city":"Old Chatham","state":"New York"},{"zipcode":"12137","state_abbr":"NY","latitude":"42.862695","longitude":"-74.11759","city":"Pattersonville","state":"New York"},{"zipcode":"12138","state_abbr":"NY","latitude":"42.760049","longitude":"-73.36801","city":"Petersburg","state":"New York"},{"zipcode":"12139","state_abbr":"NY","latitude":"43.402760","longitude":"-74.56972","city":"Piseco","state":"New York"},{"zipcode":"12140","state_abbr":"NY","latitude":"42.693228","longitude":"-73.56922","city":"Poestenkill","state":"New York"},{"zipcode":"12143","state_abbr":"NY","latitude":"42.469150","longitude":"-73.82956","city":"Ravena","state":"New York"},{"zipcode":"12144","state_abbr":"NY","latitude":"42.637380","longitude":"-73.72587","city":"Rensselaer","state":"New York"},{"zipcode":"12147","state_abbr":"NY","latitude":"42.518386","longitude":"-74.15997","city":"Rensselaerville","state":"New York"},{"zipcode":"12148","state_abbr":"NY","latitude":"42.842133","longitude":"-73.86828","city":"Rexford","state":"New York"},{"zipcode":"12149","state_abbr":"NY","latitude":"42.631190","longitude":"-74.57200","city":"Richmondville","state":"New York"},{"zipcode":"12150","state_abbr":"NY","latitude":"42.876756","longitude":"-74.05452","city":"Rotterdam Junction","state":"New York"},{"zipcode":"12151","state_abbr":"NY","latitude":"42.932326","longitude":"-73.79363","city":"Round Lake","state":"New York"},{"zipcode":"12153","state_abbr":"NY","latitude":"42.638579","longitude":"-73.48051","city":"Sand Lake","state":"New York"},{"zipcode":"12154","state_abbr":"NY","latitude":"42.925765","longitude":"-73.60664","city":"Schaghticoke","state":"New York"},{"zipcode":"12155","state_abbr":"NY","latitude":"42.587708","longitude":"-74.83536","city":"Schenevus","state":"New York"},{"zipcode":"12156","state_abbr":"NY","latitude":"42.479967","longitude":"-73.73647","city":"Schodack Landing","state":"New York"},{"zipcode":"12157","state_abbr":"NY","latitude":"42.668825","longitude":"-74.30134","city":"Schoharie","state":"New York"},{"zipcode":"12158","state_abbr":"NY","latitude":"42.539822","longitude":"-73.81545","city":"Selkirk","state":"New York"},{"zipcode":"12159","state_abbr":"NY","latitude":"42.646978","longitude":"-73.87151","city":"Slingerlands","state":"New York"},{"zipcode":"12160","state_abbr":"NY","latitude":"42.757815","longitude":"-74.34369","city":"Sloansville","state":"New York"},{"zipcode":"12164","state_abbr":"NY","latitude":"43.515611","longitude":"-74.37431","city":"Speculator","state":"New York"},{"zipcode":"12165","state_abbr":"NY","latitude":"42.317959","longitude":"-73.51802","city":"Spencertown","state":"New York"},{"zipcode":"12166","state_abbr":"NY","latitude":"42.831683","longitude":"-74.45667","city":"Sprakers","state":"New York"},{"zipcode":"12167","state_abbr":"NY","latitude":"42.414519","longitude":"-74.59577","city":"Stamford","state":"New York"},{"zipcode":"12168","state_abbr":"NY","latitude":"42.552127","longitude":"-73.39593","city":"Stephentown","state":"New York"},{"zipcode":"12169","state_abbr":"NY","latitude":"42.576120","longitude":"-73.44559","city":"Stephentown","state":"New York"},{"zipcode":"12170","state_abbr":"NY","latitude":"42.975154","longitude":"-73.66576","city":"Stillwater","state":"New York"},{"zipcode":"12173","state_abbr":"NY","latitude":"42.377829","longitude":"-73.75943","city":"Stuyvesant","state":"New York"},{"zipcode":"12175","state_abbr":"NY","latitude":"42.559096","longitude":"-74.55282","city":"Summit","state":"New York"},{"zipcode":"12176","state_abbr":"NY","latitude":"42.393192","longitude":"-73.96763","city":"Surprise","state":"New York"},{"zipcode":"12180","state_abbr":"NY","latitude":"42.731628","longitude":"-73.66465","city":"Troy","state":"New York"},{"zipcode":"12182","state_abbr":"NY","latitude":"42.785887","longitude":"-73.66221","city":"Troy","state":"New York"},{"zipcode":"12183","state_abbr":"NY","latitude":"42.743289","longitude":"-73.69482","city":"Troy","state":"New York"},{"zipcode":"12184","state_abbr":"NY","latitude":"42.426901","longitude":"-73.66405","city":"Valatie","state":"New York"},{"zipcode":"12185","state_abbr":"NY","latitude":"42.884779","longitude":"-73.53703","city":"Valley Falls","state":"New York"},{"zipcode":"12186","state_abbr":"NY","latitude":"42.638481","longitude":"-73.95946","city":"Voorheesville","state":"New York"},{"zipcode":"12187","state_abbr":"NY","latitude":"42.624507","longitude":"-74.46772","city":"Warnerville","state":"New York"},{"zipcode":"12188","state_abbr":"NY","latitude":"42.805350","longitude":"-73.68976","city":"Waterford","state":"New York"},{"zipcode":"12189","state_abbr":"NY","latitude":"42.729278","longitude":"-73.70913","city":"Watervliet","state":"New York"},{"zipcode":"12190","state_abbr":"NY","latitude":"43.433050","longitude":"-74.29010","city":"Wells","state":"New York"},{"zipcode":"12192","state_abbr":"NY","latitude":"42.413742","longitude":"-73.81773","city":"West Coxsackie","state":"New York"},{"zipcode":"12193","state_abbr":"NY","latitude":"42.515818","longitude":"-74.04978","city":"Westerlo","state":"New York"},{"zipcode":"12194","state_abbr":"NY","latitude":"42.529042","longitude":"-74.44937","city":"West Fulton","state":"New York"},{"zipcode":"12196","state_abbr":"NY","latitude":"42.631625","longitude":"-73.61619","city":"West Sand Lake","state":"New York"},{"zipcode":"12197","state_abbr":"NY","latitude":"42.610314","longitude":"-74.72401","city":"Worcester","state":"New York"},{"zipcode":"12198","state_abbr":"NY","latitude":"42.685311","longitude":"-73.63801","city":"Wynantskill","state":"New York"},{"zipcode":"12202","state_abbr":"NY","latitude":"42.640129","longitude":"-73.76061","city":"Albany","state":"New York"},{"zipcode":"12203","state_abbr":"NY","latitude":"42.678112","longitude":"-73.82983","city":"Albany","state":"New York"},{"zipcode":"12204","state_abbr":"NY","latitude":"42.683727","longitude":"-73.73329","city":"Albany","state":"New York"},{"zipcode":"12205","state_abbr":"NY","latitude":"42.713328","longitude":"-73.81790","city":"Albany","state":"New York"},{"zipcode":"12206","state_abbr":"NY","latitude":"42.669645","longitude":"-73.77719","city":"Albany","state":"New York"},{"zipcode":"12207","state_abbr":"NY","latitude":"42.653979","longitude":"-73.74833","city":"Albany","state":"New York"},{"zipcode":"12208","state_abbr":"NY","latitude":"42.654978","longitude":"-73.80053","city":"Albany","state":"New York"},{"zipcode":"12209","state_abbr":"NY","latitude":"42.640813","longitude":"-73.78560","city":"Albany","state":"New York"},{"zipcode":"12210","state_abbr":"NY","latitude":"42.656679","longitude":"-73.75894","city":"Albany","state":"New York"},{"zipcode":"12211","state_abbr":"NY","latitude":"42.705345","longitude":"-73.76924","city":"Albany","state":"New York"},{"zipcode":"12302","state_abbr":"NY","latitude":"42.862193","longitude":"-73.96317","city":"Schenectady","state":"New York"},{"zipcode":"12303","state_abbr":"NY","latitude":"42.769009","longitude":"-73.93619","city":"Schenectady","state":"New York"},{"zipcode":"12304","state_abbr":"NY","latitude":"42.779026","longitude":"-73.90507","city":"Schenectady","state":"New York"},{"zipcode":"12305","state_abbr":"NY","latitude":"42.814476","longitude":"-73.94337","city":"Schenectady","state":"New York"},{"zipcode":"12306","state_abbr":"NY","latitude":"42.793326","longitude":"-73.98942","city":"Schenectady","state":"New York"},{"zipcode":"12307","state_abbr":"NY","latitude":"42.804076","longitude":"-73.93571","city":"Schenectady","state":"New York"},{"zipcode":"12308","state_abbr":"NY","latitude":"42.820909","longitude":"-73.92002","city":"Schenectady","state":"New York"},{"zipcode":"12309","state_abbr":"NY","latitude":"42.800276","longitude":"-73.88096","city":"Schenectady","state":"New York"},{"zipcode":"12401","state_abbr":"NY","latitude":"41.932315","longitude":"-74.02259","city":"Kingston","state":"New York"},{"zipcode":"12404","state_abbr":"NY","latitude":"41.811322","longitude":"-74.23471","city":"Accord","state":"New York"},{"zipcode":"12405","state_abbr":"NY","latitude":"42.320081","longitude":"-74.07288","city":"Acra","state":"New York"},{"zipcode":"12406","state_abbr":"NY","latitude":"42.130111","longitude":"-74.57574","city":"Arkville","state":"New York"},{"zipcode":"12407","state_abbr":"NY","latitude":"42.321453","longitude":"-74.33926","city":"Ashland","state":"New York"},{"zipcode":"12409","state_abbr":"NY","latitude":"42.061841","longitude":"-74.16063","city":"Bearsville","state":"New York"},{"zipcode":"12410","state_abbr":"NY","latitude":"42.114646","longitude":"-74.45570","city":"Big Indian","state":"New York"},{"zipcode":"12411","state_abbr":"NY","latitude":"41.879160","longitude":"-74.03995","city":"Bloomington","state":"New York"},{"zipcode":"12412","state_abbr":"NY","latitude":"42.001351","longitude":"-74.26190","city":"Boiceville","state":"New York"},{"zipcode":"12413","state_abbr":"NY","latitude":"42.307982","longitude":"-74.00800","city":"Cairo","state":"New York"},{"zipcode":"12414","state_abbr":"NY","latitude":"42.223002","longitude":"-73.90452","city":"Catskill","state":"New York"},{"zipcode":"12416","state_abbr":"NY","latitude":"42.105611","longitude":"-74.29143","city":"Chichester","state":"New York"},{"zipcode":"12418","state_abbr":"NY","latitude":"42.357579","longitude":"-74.15136","city":"Cornwallville","state":"New York"},{"zipcode":"12419","state_abbr":"NY","latitude":"41.852449","longitude":"-74.10605","city":"Cottekill","state":"New York"},{"zipcode":"12420","state_abbr":"NY","latitude":"41.674288","longitude":"-74.37833","city":"Cragsmoor","state":"New York"},{"zipcode":"12421","state_abbr":"NY","latitude":"42.249541","longitude":"-74.54558","city":"Denver","state":"New York"},{"zipcode":"12422","state_abbr":"NY","latitude":"42.390291","longitude":"-74.20164","city":"Durham","state":"New York"},{"zipcode":"12423","state_abbr":"NY","latitude":"42.378679","longitude":"-74.10443","city":"East Durham","state":"New York"},{"zipcode":"12424","state_abbr":"NY","latitude":"42.240343","longitude":"-74.15932","city":"East Jewett","state":"New York"},{"zipcode":"12427","state_abbr":"NY","latitude":"42.167622","longitude":"-74.15306","city":"Elka Park","state":"New York"},{"zipcode":"12428","state_abbr":"NY","latitude":"41.727588","longitude":"-74.42061","city":"Ellenville","state":"New York"},{"zipcode":"12429","state_abbr":"NY","latitude":"41.816628","longitude":"-73.97824","city":"Esopus","state":"New York"},{"zipcode":"12430","state_abbr":"NY","latitude":"42.183262","longitude":"-74.52154","city":"Fleischmanns","state":"New York"},{"zipcode":"12431","state_abbr":"NY","latitude":"42.361838","longitude":"-74.02471","city":"Freehold","state":"New York"},{"zipcode":"12433","state_abbr":"NY","latitude":"42.000093","longitude":"-74.15946","city":"Glenford","state":"New York"},{"zipcode":"12434","state_abbr":"NY","latitude":"42.368009","longitude":"-74.50137","city":"Grand Gorge","state":"New York"},{"zipcode":"12435","state_abbr":"NY","latitude":"41.725808","longitude":"-74.52106","city":"Greenfield Park","state":"New York"},{"zipcode":"12439","state_abbr":"NY","latitude":"42.302596","longitude":"-74.22711","city":"Hensonville","state":"New York"},{"zipcode":"12440","state_abbr":"NY","latitude":"41.801696","longitude":"-74.14187","city":"High Falls","state":"New York"},{"zipcode":"12442","state_abbr":"NY","latitude":"42.222061","longitude":"-74.23418","city":"Hunter","state":"New York"},{"zipcode":"12443","state_abbr":"NY","latitude":"41.926740","longitude":"-74.06797","city":"Hurley","state":"New York"},{"zipcode":"12444","state_abbr":"NY","latitude":"42.260634","longitude":"-74.27527","city":"Jewett","state":"New York"},{"zipcode":"12446","state_abbr":"NY","latitude":"41.790385","longitude":"-74.30413","city":"Kerhonkson","state":"New York"},{"zipcode":"12448","state_abbr":"NY","latitude":"42.073259","longitude":"-74.18930","city":"Lake Hill","state":"New York"},{"zipcode":"12449","state_abbr":"NY","latitude":"41.993639","longitude":"-73.99843","city":"Lake Katrine","state":"New York"},{"zipcode":"12450","state_abbr":"NY","latitude":"42.157937","longitude":"-74.23034","city":"Lanesville","state":"New York"},{"zipcode":"12451","state_abbr":"NY","latitude":"42.281117","longitude":"-73.94006","city":"Leeds","state":"New York"},{"zipcode":"12454","state_abbr":"NY","latitude":"42.280261","longitude":"-74.18349","city":"Maplecrest","state":"New York"},{"zipcode":"12455","state_abbr":"NY","latitude":"42.151449","longitude":"-74.64261","city":"Margaretville","state":"New York"},{"zipcode":"12456","state_abbr":"NY","latitude":"42.034256","longitude":"-73.99876","city":"Mount Marion","state":"New York"},{"zipcode":"12457","state_abbr":"NY","latitude":"42.038539","longitude":"-74.23905","city":"Mount Tremper","state":"New York"},{"zipcode":"12458","state_abbr":"NY","latitude":"41.802898","longitude":"-74.40025","city":"Napanoch","state":"New York"},{"zipcode":"12459","state_abbr":"NY","latitude":"42.227987","longitude":"-74.68912","city":"New Kingston","state":"New York"},{"zipcode":"12460","state_abbr":"NY","latitude":"42.406464","longitude":"-74.15692","city":"Oak Hill","state":"New York"},{"zipcode":"12461","state_abbr":"NY","latitude":"41.912356","longitude":"-74.24724","city":"Olivebridge","state":"New York"},{"zipcode":"12463","state_abbr":"NY","latitude":"42.174411","longitude":"-74.01599","city":"Palenville","state":"New York"},{"zipcode":"12464","state_abbr":"NY","latitude":"42.081269","longitude":"-74.32629","city":"Phoenicia","state":"New York"},{"zipcode":"12466","state_abbr":"NY","latitude":"41.905004","longitude":"-73.97957","city":"Port Ewen","state":"New York"},{"zipcode":"12468","state_abbr":"NY","latitude":"42.297725","longitude":"-74.40063","city":"Prattsville","state":"New York"},{"zipcode":"12469","state_abbr":"NY","latitude":"42.442592","longitude":"-74.24159","city":"Preston Hollow","state":"New York"},{"zipcode":"12470","state_abbr":"NY","latitude":"42.284773","longitude":"-74.02388","city":"Purling","state":"New York"},{"zipcode":"12471","state_abbr":"NY","latitude":"41.839620","longitude":"-74.04033","city":"Rifton","state":"New York"},{"zipcode":"12472","state_abbr":"NY","latitude":"41.846938","longitude":"-74.07602","city":"Rosendale","state":"New York"},{"zipcode":"12473","state_abbr":"NY","latitude":"42.260709","longitude":"-74.03078","city":"Round Top","state":"New York"},{"zipcode":"12474","state_abbr":"NY","latitude":"42.285644","longitude":"-74.59011","city":"Roxbury","state":"New York"},{"zipcode":"12477","state_abbr":"NY","latitude":"42.085634","longitude":"-73.97685","city":"Saugerties","state":"New York"},{"zipcode":"12480","state_abbr":"NY","latitude":"42.142121","longitude":"-74.40650","city":"Shandaken","state":"New York"},{"zipcode":"12481","state_abbr":"NY","latitude":"41.974857","longitude":"-74.20686","city":"Shokan","state":"New York"},{"zipcode":"12482","state_abbr":"NY","latitude":"42.270559","longitude":"-73.95729","city":"South Cairo","state":"New York"},{"zipcode":"12484","state_abbr":"NY","latitude":"41.850294","longitude":"-74.16619","city":"Stone Ridge","state":"New York"},{"zipcode":"12485","state_abbr":"NY","latitude":"42.199479","longitude":"-74.12514","city":"Tannersville","state":"New York"},{"zipcode":"12486","state_abbr":"NY","latitude":"41.831082","longitude":"-74.07207","city":"Tillson","state":"New York"},{"zipcode":"12487","state_abbr":"NY","latitude":"41.855761","longitude":"-73.99207","city":"Ulster Park","state":"New York"},{"zipcode":"12489","state_abbr":"NY","latitude":"41.757766","longitude":"-74.35392","city":"Wawarsing","state":"New York"},{"zipcode":"12491","state_abbr":"NY","latitude":"41.998199","longitude":"-74.10967","city":"West Hurley","state":"New York"},{"zipcode":"12492","state_abbr":"NY","latitude":"42.209414","longitude":"-74.34767","city":"West Kill","state":"New York"},{"zipcode":"12493","state_abbr":"NY","latitude":"41.805576","longitude":"-73.96845","city":"West Park","state":"New York"},{"zipcode":"12494","state_abbr":"NY","latitude":"41.961316","longitude":"-74.27687","city":"West Shokan","state":"New York"},{"zipcode":"12495","state_abbr":"NY","latitude":"42.080232","longitude":"-74.24801","city":"Willow","state":"New York"},{"zipcode":"12496","state_abbr":"NY","latitude":"42.326918","longitude":"-74.24657","city":"Windham","state":"New York"},{"zipcode":"12498","state_abbr":"NY","latitude":"42.037356","longitude":"-74.11016","city":"Woodstock","state":"New York"},{"zipcode":"12501","state_abbr":"NY","latitude":"41.852959","longitude":"-73.55727","city":"Amenia","state":"New York"},{"zipcode":"12502","state_abbr":"NY","latitude":"42.086628","longitude":"-73.66420","city":"Ancram","state":"New York"},{"zipcode":"12503","state_abbr":"NY","latitude":"42.045941","longitude":"-73.57792","city":"Ancramdale","state":"New York"},{"zipcode":"12507","state_abbr":"NY","latitude":"42.005984","longitude":"-73.92132","city":"Barrytown","state":"New York"},{"zipcode":"12508","state_abbr":"NY","latitude":"41.505993","longitude":"-73.96198","city":"Beacon","state":"New York"},{"zipcode":"12513","state_abbr":"NY","latitude":"42.220962","longitude":"-73.71182","city":"Claverack","state":"New York"},{"zipcode":"12514","state_abbr":"NY","latitude":"41.874183","longitude":"-73.76727","city":"Clinton Corners","state":"New York"},{"zipcode":"12515","state_abbr":"NY","latitude":"41.681096","longitude":"-74.06421","city":"Clintondale","state":"New York"},{"zipcode":"12516","state_abbr":"NY","latitude":"42.112895","longitude":"-73.56201","city":"Copake","state":"New York"},{"zipcode":"12517","state_abbr":"NY","latitude":"42.144585","longitude":"-73.51463","city":"Copake Falls","state":"New York"},{"zipcode":"12518","state_abbr":"NY","latitude":"41.434476","longitude":"-74.03584","city":"Cornwall","state":"New York"},{"zipcode":"12520","state_abbr":"NY","latitude":"41.442589","longitude":"-74.01389","city":"Cornwall On Hudson","state":"New York"},{"zipcode":"12521","state_abbr":"NY","latitude":"42.176216","longitude":"-73.65036","city":"Craryville","state":"New York"},{"zipcode":"12522","state_abbr":"NY","latitude":"41.738853","longitude":"-73.58921","city":"Dover Plains","state":"New York"},{"zipcode":"12523","state_abbr":"NY","latitude":"42.080964","longitude":"-73.77856","city":"Elizaville","state":"New York"},{"zipcode":"12524","state_abbr":"NY","latitude":"41.537232","longitude":"-73.89720","city":"Fishkill","state":"New York"},{"zipcode":"12525","state_abbr":"NY","latitude":"41.691524","longitude":"-74.18764","city":"Gardiner","state":"New York"},{"zipcode":"12526","state_abbr":"NY","latitude":"42.123977","longitude":"-73.86199","city":"Germantown","state":"New York"},{"zipcode":"12528","state_abbr":"NY","latitude":"41.713682","longitude":"-73.99650","city":"Highland","state":"New York"},{"zipcode":"12529","state_abbr":"NY","latitude":"42.204681","longitude":"-73.54775","city":"Hillsdale","state":"New York"},{"zipcode":"12531","state_abbr":"NY","latitude":"41.519085","longitude":"-73.67241","city":"Holmes","state":"New York"},{"zipcode":"12533","state_abbr":"NY","latitude":"41.573253","longitude":"-73.79347","city":"Hopewell Junction","state":"New York"},{"zipcode":"12534","state_abbr":"NY","latitude":"42.229480","longitude":"-73.75846","city":"Hudson","state":"New York"},{"zipcode":"12538","state_abbr":"NY","latitude":"41.779541","longitude":"-73.90155","city":"Hyde Park","state":"New York"},{"zipcode":"12540","state_abbr":"NY","latitude":"41.656933","longitude":"-73.74539","city":"Lagrangeville","state":"New York"},{"zipcode":"12542","state_abbr":"NY","latitude":"41.603333","longitude":"-73.98415","city":"Marlboro","state":"New York"},{"zipcode":"12543","state_abbr":"NY","latitude":"41.484988","longitude":"-74.21610","city":"Maybrook","state":"New York"},{"zipcode":"12545","state_abbr":"NY","latitude":"41.785109","longitude":"-73.68075","city":"Millbrook","state":"New York"},{"zipcode":"12546","state_abbr":"NY","latitude":"41.961002","longitude":"-73.52011","city":"Millerton","state":"New York"},{"zipcode":"12547","state_abbr":"NY","latitude":"41.656805","longitude":"-73.96831","city":"Milton","state":"New York"},{"zipcode":"12548","state_abbr":"NY","latitude":"41.664239","longitude":"-74.11060","city":"Modena","state":"New York"},{"zipcode":"12549","state_abbr":"NY","latitude":"41.520396","longitude":"-74.24712","city":"Montgomery","state":"New York"},{"zipcode":"12550","state_abbr":"NY","latitude":"41.521593","longitude":"-74.04072","city":"Newburgh","state":"New York"},{"zipcode":"12553","state_abbr":"NY","latitude":"41.463590","longitude":"-74.05975","city":"New Windsor","state":"New York"},{"zipcode":"12561","state_abbr":"NY","latitude":"41.751566","longitude":"-74.09475","city":"New Paltz","state":"New York"},{"zipcode":"12563","state_abbr":"NY","latitude":"41.483689","longitude":"-73.57293","city":"Patterson","state":"New York"},{"zipcode":"12564","state_abbr":"NY","latitude":"41.570328","longitude":"-73.59825","city":"Pawling","state":"New York"},{"zipcode":"12565","state_abbr":"NY","latitude":"42.248620","longitude":"-73.64760","city":"Philmont","state":"New York"},{"zipcode":"12566","state_abbr":"NY","latitude":"41.611340","longitude":"-74.32764","city":"Pine Bush","state":"New York"},{"zipcode":"12567","state_abbr":"NY","latitude":"41.997807","longitude":"-73.66663","city":"Pine Plains","state":"New York"},{"zipcode":"12569","state_abbr":"NY","latitude":"41.746469","longitude":"-73.80414","city":"Pleasant Valley","state":"New York"},{"zipcode":"12570","state_abbr":"NY","latitude":"41.614667","longitude":"-73.67709","city":"Poughquag","state":"New York"},{"zipcode":"12571","state_abbr":"NY","latitude":"42.002691","longitude":"-73.84420","city":"Red Hook","state":"New York"},{"zipcode":"12572","state_abbr":"NY","latitude":"41.930983","longitude":"-73.88271","city":"Rhinebeck","state":"New York"},{"zipcode":"12575","state_abbr":"NY","latitude":"41.478722","longitude":"-74.15626","city":"Rock Tavern","state":"New York"},{"zipcode":"12577","state_abbr":"NY","latitude":"41.433856","longitude":"-74.11963","city":"Salisbury Mills","state":"New York"},{"zipcode":"12578","state_abbr":"NY","latitude":"41.803384","longitude":"-73.78147","city":"Salt Point","state":"New York"},{"zipcode":"12580","state_abbr":"NY","latitude":"41.854465","longitude":"-73.89922","city":"Staatsburg","state":"New York"},{"zipcode":"12581","state_abbr":"NY","latitude":"41.891870","longitude":"-73.69888","city":"Stanfordville","state":"New York"},{"zipcode":"12582","state_abbr":"NY","latitude":"41.549525","longitude":"-73.72745","city":"Stormville","state":"New York"},{"zipcode":"12583","state_abbr":"NY","latitude":"42.060034","longitude":"-73.88393","city":"Tivoli","state":"New York"},{"zipcode":"12585","state_abbr":"NY","latitude":"41.721384","longitude":"-73.71620","city":"Verbank","state":"New York"},{"zipcode":"12586","state_abbr":"NY","latitude":"41.563701","longitude":"-74.17550","city":"Walden","state":"New York"},{"zipcode":"12589","state_abbr":"NY","latitude":"41.615036","longitude":"-74.15461","city":"Wallkill","state":"New York"},{"zipcode":"12590","state_abbr":"NY","latitude":"41.594660","longitude":"-73.89579","city":"Wappingers Falls","state":"New York"},{"zipcode":"12592","state_abbr":"NY","latitude":"41.782781","longitude":"-73.55792","city":"Wassaic","state":"New York"},{"zipcode":"12594","state_abbr":"NY","latitude":"41.646584","longitude":"-73.56209","city":"Wingdale","state":"New York"},{"zipcode":"12601","state_abbr":"NY","latitude":"41.701443","longitude":"-73.91922","city":"Poughkeepsie","state":"New York"},{"zipcode":"12603","state_abbr":"NY","latitude":"41.670860","longitude":"-73.88107","city":"Poughkeepsie","state":"New York"},{"zipcode":"12701","state_abbr":"NY","latitude":"41.653071","longitude":"-74.69748","city":"Monticello","state":"New York"},{"zipcode":"12719","state_abbr":"NY","latitude":"41.480326","longitude":"-74.92694","city":"Barryville","state":"New York"},{"zipcode":"12720","state_abbr":"NY","latitude":"41.660230","longitude":"-74.90438","city":"Bethel","state":"New York"},{"zipcode":"12721","state_abbr":"NY","latitude":"41.564426","longitude":"-74.42650","city":"Bloomingburg","state":"New York"},{"zipcode":"12723","state_abbr":"NY","latitude":"41.769427","longitude":"-75.02808","city":"Callicoon","state":"New York"},{"zipcode":"12724","state_abbr":"NY","latitude":"41.858278","longitude":"-74.95034","city":"Callicoon Center","state":"New York"},{"zipcode":"12725","state_abbr":"NY","latitude":"41.926119","longitude":"-74.55675","city":"Claryville","state":"New York"},{"zipcode":"12726","state_abbr":"NY","latitude":"41.694153","longitude":"-74.97593","city":"Cochecton","state":"New York"},{"zipcode":"12727","state_abbr":"NY","latitude":"41.657225","longitude":"-74.98161","city":"Cochecton Center","state":"New York"},{"zipcode":"12729","state_abbr":"NY","latitude":"41.475235","longitude":"-74.60276","city":"Cuddebackville","state":"New York"},{"zipcode":"12732","state_abbr":"NY","latitude":"41.545318","longitude":"-74.87533","city":"Eldred","state":"New York"},{"zipcode":"12733","state_abbr":"NY","latitude":"41.732505","longitude":"-74.60896","city":"Fallsburg","state":"New York"},{"zipcode":"12734","state_abbr":"NY","latitude":"41.734913","longitude":"-74.75013","city":"Ferndale","state":"New York"},{"zipcode":"12736","state_abbr":"NY","latitude":"41.848244","longitude":"-75.03878","city":"Fremont Center","state":"New York"},{"zipcode":"12737","state_abbr":"NY","latitude":"41.483970","longitude":"-74.81186","city":"Glen Spey","state":"New York"},{"zipcode":"12738","state_abbr":"NY","latitude":"41.648888","longitude":"-74.57064","city":"Glen Wild","state":"New York"},{"zipcode":"12739","state_abbr":"NY","latitude":"41.437427","longitude":"-74.60322","city":"Godeffroy","state":"New York"},{"zipcode":"12740","state_abbr":"NY","latitude":"41.853040","longitude":"-74.52915","city":"Grahamsville","state":"New York"},{"zipcode":"12741","state_abbr":"NY","latitude":"41.838672","longitude":"-75.08718","city":"Hankins","state":"New York"},{"zipcode":"12742","state_abbr":"NY","latitude":"41.720235","longitude":"-74.72901","city":"Harris","state":"New York"},{"zipcode":"12743","state_abbr":"NY","latitude":"41.534810","longitude":"-74.84656","city":"Highland Lake","state":"New York"},{"zipcode":"12746","state_abbr":"NY","latitude":"41.436732","longitude":"-74.64558","city":"Huguenot","state":"New York"},{"zipcode":"12747","state_abbr":"NY","latitude":"41.752458","longitude":"-74.66996","city":"Hurleyville","state":"New York"},{"zipcode":"12748","state_abbr":"NY","latitude":"41.774223","longitude":"-74.92211","city":"Jeffersonville","state":"New York"},{"zipcode":"12749","state_abbr":"NY","latitude":"41.689600","longitude":"-74.82720","city":"Kauneonga Lake","state":"New York"},{"zipcode":"12751","state_abbr":"NY","latitude":"41.679152","longitude":"-74.65700","city":"Kiamesha Lake","state":"New York"},{"zipcode":"12752","state_abbr":"NY","latitude":"41.677243","longitude":"-74.99109","city":"Lake Huntington","state":"New York"},{"zipcode":"12754","state_abbr":"NY","latitude":"41.798476","longitude":"-74.73610","city":"Liberty","state":"New York"},{"zipcode":"12758","state_abbr":"NY","latitude":"41.920201","longitude":"-74.78570","city":"Livingston Manor","state":"New York"},{"zipcode":"12759","state_abbr":"NY","latitude":"41.780299","longitude":"-74.65618","city":"Loch Sheldrake","state":"New York"},{"zipcode":"12760","state_abbr":"NY","latitude":"41.901849","longitude":"-75.10493","city":"Long Eddy","state":"New York"},{"zipcode":"12762","state_abbr":"NY","latitude":"41.676676","longitude":"-74.80674","city":"Mongaup Valley","state":"New York"},{"zipcode":"12763","state_abbr":"NY","latitude":"41.690795","longitude":"-74.52273","city":"Mountain Dale","state":"New York"},{"zipcode":"12764","state_abbr":"NY","latitude":"41.588604","longitude":"-74.99385","city":"Narrowsburg","state":"New York"},{"zipcode":"12765","state_abbr":"NY","latitude":"41.845381","longitude":"-74.61427","city":"Neversink","state":"New York"},{"zipcode":"12766","state_abbr":"NY","latitude":"41.815316","longitude":"-74.97995","city":"North Branch","state":"New York"},{"zipcode":"12768","state_abbr":"NY","latitude":"41.864326","longitude":"-74.72961","city":"Parksville","state":"New York"},{"zipcode":"12770","state_abbr":"NY","latitude":"41.445150","longitude":"-74.84003","city":"Pond Eddy","state":"New York"},{"zipcode":"12771","state_abbr":"NY","latitude":"41.374734","longitude":"-74.66315","city":"Port Jervis","state":"New York"},{"zipcode":"12775","state_abbr":"NY","latitude":"41.614218","longitude":"-74.58836","city":"Rock Hill","state":"New York"},{"zipcode":"12776","state_abbr":"NY","latitude":"41.948360","longitude":"-74.94475","city":"Roscoe","state":"New York"},{"zipcode":"12777","state_abbr":"NY","latitude":"41.562141","longitude":"-74.71252","city":"Forestburgh","state":"New York"},{"zipcode":"12778","state_abbr":"NY","latitude":"41.659740","longitude":"-74.81200","city":"Smallwood","state":"New York"},{"zipcode":"12779","state_abbr":"NY","latitude":"41.705649","longitude":"-74.62985","city":"South Fallsburg","state":"New York"},{"zipcode":"12780","state_abbr":"NY","latitude":"41.429425","longitude":"-74.72244","city":"Sparrow Bush","state":"New York"},{"zipcode":"12783","state_abbr":"NY","latitude":"41.736523","longitude":"-74.82634","city":"Swan Lake","state":"New York"},